{
"type": "FeatureCollection",
"crs": { "type": "name", "properties": { "name": "urn:ogc:def:crs:OGC:1.3:CRS84" } },
"features": [
{ "type": "Feature", "properties": { "city": "Alabaster", "state": "Alabama", "population": 33873, "latitude": 33.2186505, "longitude": -86.8217675, "capital": null }, "geometry": { "type": "Point", "coordinates": [ -86.8217675, 33.2186505 ] } },
{ "type": "Feature", "properties": { "city": "Albertville", "state": "Alabama", "population": 22726, "latitude": 34.263312, "longitude": -86.2108504, "capital": null }, "geometry": { "type": "Point", "coordinates": [ -86.2108504, 34.263312 ] } },
{ "type": "Feature", "properties": { "city": "Alexander City", "state": "Alabama", "population": 14636, "latitude": 32.9163971, "longitude": -85.9352731, "capital": null }, "geometry": { "type": "Point", "coordinates": [ -85.9352731, 32.9163971 ] } },
{ "type": "Feature", "properties": { "city": "Anniston", "state": "Alabama", "population": 21182, "latitude": 33.6712266, "longitude": -85.8135377, "capital": null }, "geometry": { "type": "Point", "coordinates": [ -85.8135377, 33.6712266 ] } },
{ "type": "Feature", "properties": { "city": "Athens", "state": "Alabama", "population": 28661, "latitude": 34.7840683, "longitude": -86.9500499, "capital": null }, "geometry": { "type": "Point", "coordinates": [ -86.9500499, 34.7840683 ] } },
{ "type": "Feature", "properties": { "city": "Auburn", "state": "Alabama", "population": 80006, "latitude": 32.6090194, "longitude": -85.4907251, "capital": null }, "geometry": { "type": "Point", "coordinates": [ -85.4907251, 32.6090194 ] } },
{ "type": "Feature", "properties": { "city": "Bessemer", "state": "Alabama", "population": 25264, "latitude": 33.3711868, "longitude": -86.9726539, "capital": null }, "geometry": { "type": "Point", "coordinates": [ -86.9726539, 33.3711868 ] } },
{ "type": "Feature", "properties": { "city": "Birmingham", "state": "Alabama", "population": 196910, "latitude": 33.5278149, "longitude": -86.7971348, "capital": null }, "geometry": { "type": "Point", "coordinates": [ -86.7971348, 33.5278149 ] } },
{ "type": "Feature", "properties": { "city": "Boaz", "state": "Alabama", "population": 10292, "latitude": 34.1984698, "longitude": -86.1528873, "capital": null }, "geometry": { "type": "Point", "coordinates": [ -86.1528873, 34.1984698 ] } },
{ "type": "Feature", "properties": { "city": "Calera", "state": "Alabama", "population": 17868, "latitude": 33.125689, "longitude": -86.7448824, "capital": null }, "geometry": { "type": "Point", "coordinates": [ -86.7448824, 33.125689 ] } },
{ "type": "Feature", "properties": { "city": "Center Point", "state": "Alabama", "population": 15887, "latitude": 33.644743, "longitude": -86.6851946, "capital": null }, "geometry": { "type": "Point", "coordinates": [ -86.6851946, 33.644743 ] } },
{ "type": "Feature", "properties": { "city": "Chelsea", "state": "Alabama", "population": 16193, "latitude": 33.307744, "longitude": -86.6301939, "capital": null }, "geometry": { "type": "Point", "coordinates": [ -86.6301939, 33.307744 ] } },
{ "type": "Feature", "properties": { "city": "Clay", "state": "Alabama", "population": 10290, "latitude": 33.6953889, "longitude": -86.6090049, "capital": null }, "geometry": { "type": "Point", "coordinates": [ -86.6090049, 33.6953889 ] } },
{ "type": "Feature", "properties": { "city": "Cullman", "state": "Alabama", "population": 19251, "latitude": 34.1764898, "longitude": -86.8403176, "capital": null }, "geometry": { "type": "Point", "coordinates": [ -86.8403176, 34.1764898 ] } },
{ "type": "Feature", "properties": { "city": "Daphne", "state": "Alabama", "population": 29670, "latitude": 30.625994, "longitude": -87.8816155, "capital": null }, "geometry": { "type": "Point", "coordinates": [ -87.8816155, 30.625994 ] } },
{ "type": "Feature", "properties": { "city": "Decatur", "state": "Alabama", "population": 57922, "latitude": 34.5730099, "longitude": -86.9902918, "capital": null }, "geometry": { "type": "Point", "coordinates": [ -86.9902918, 34.5730099 ] } },
{ "type": "Feature", "properties": { "city": "Dothan", "state": "Alabama", "population": 71235, "latitude": 31.233527, "longitude": -85.4069303, "capital": null }, "geometry": { "type": "Point", "coordinates": [ -85.4069303, 31.233527 ] } },
{ "type": "Feature", "properties": { "city": "Enterprise", "state": "Alabama", "population": 29767, "latitude": 31.3275795, "longitude": -85.8463357, "capital": null }, "geometry": { "type": "Point", "coordinates": [ -85.8463357, 31.3275795 ] } },
{ "type": "Feature", "properties": { "city": "Eufaula", "state": "Alabama", "population": 12539, "latitude": 31.9102124, "longitude": -85.1505382, "capital": null }, "geometry": { "type": "Point", "coordinates": [ -85.1505382, 31.9102124 ] } },
{ "type": "Feature", "properties": { "city": "Fairhope", "state": "Alabama", "population": 23859, "latitude": 30.5205017, "longitude": -87.8810757, "capital": null }, "geometry": { "type": "Point", "coordinates": [ -87.8810757, 30.5205017 ] } },
{ "type": "Feature", "properties": { "city": "Florence", "state": "Alabama", "population": 41690, "latitude": 34.830409, "longitude": -87.6654455, "capital": null }, "geometry": { "type": "Point", "coordinates": [ -87.6654455, 34.830409 ] } },
{ "type": "Feature", "properties": { "city": "Foley", "state": "Alabama", "population": 23577, "latitude": 30.3977166, "longitude": -87.6652395, "capital": null }, "geometry": { "type": "Point", "coordinates": [ -87.6652395, 30.3977166 ] } },
{ "type": "Feature", "properties": { "city": "Fort Payne", "state": "Alabama", "population": 14879, "latitude": 34.4559163, "longitude": -85.6965158, "capital": null }, "geometry": { "type": "Point", "coordinates": [ -85.6965158, 34.4559163 ] } },
{ "type": "Feature", "properties": { "city": "Gadsden", "state": "Alabama", "population": 33335, "latitude": 34.0086369, "longitude": -86.0157282, "capital": null }, "geometry": { "type": "Point", "coordinates": [ -86.0157282, 34.0086369 ] } },
{ "type": "Feature", "properties": { "city": "Gardendale", "state": "Alabama", "population": 16244, "latitude": 33.6676411, "longitude": -86.8069382, "capital": null }, "geometry": { "type": "Point", "coordinates": [ -86.8069382, 33.6676411 ] } },
{ "type": "Feature", "properties": { "city": "Gulf Shores", "state": "Alabama", "population": 16193, "latitude": 30.2765302, "longitude": -87.7011823, "capital": null }, "geometry": { "type": "Point", "coordinates": [ -87.7011823, 30.2765302 ] } },
{ "type": "Feature", "properties": { "city": "Hartselle", "state": "Alabama", "population": 15649, "latitude": 34.4391516, "longitude": -86.9395462, "capital": null }, "geometry": { "type": "Point", "coordinates": [ -86.9395462, 34.4391516 ] } },
{ "type": "Feature", "properties": { "city": "Helena", "state": "Alabama", "population": 21862, "latitude": 33.2836859, "longitude": -86.8789735, "capital": null }, "geometry": { "type": "Point", "coordinates": [ -86.8789735, 33.2836859 ] } },
{ "type": "Feature", "properties": { "city": "Homewood", "state": "Alabama", "population": 27864, "latitude": 33.4619522, "longitude": -86.8090109, "capital": null }, "geometry": { "type": "Point", "coordinates": [ -86.8090109, 33.4619522 ] } },
{ "type": "Feature", "properties": { "city": "Hoover", "state": "Alabama", "population": 92435, "latitude": 33.3762611, "longitude": -86.8084976, "capital": null }, "geometry": { "type": "Point", "coordinates": [ -86.8084976, 33.3762611 ] } },
{ "type": "Feature", "properties": { "city": "Hueytown", "state": "Alabama", "population": 16369, "latitude": 33.4235678, "longitude": -87.0217055, "capital": null }, "geometry": { "type": "Point", "coordinates": [ -87.0217055, 33.4235678 ] } },
{ "type": "Feature", "properties": { "city": "Huntsville", "state": "Alabama", "population": 221933, "latitude": 34.6979662, "longitude": -86.6437965, "capital": null }, "geometry": { "type": "Point", "coordinates": [ -86.6437965, 34.6979662 ] } },
{ "type": "Feature", "properties": { "city": "Irondale", "state": "Alabama", "population": 13366, "latitude": 33.5439586, "longitude": -86.6605096, "capital": null }, "geometry": { "type": "Point", "coordinates": [ -86.6605096, 33.5439586 ] } },
{ "type": "Feature", "properties": { "city": "Jacksonville", "state": "Alabama", "population": 14432, "latitude": 33.8088011, "longitude": -85.7544816, "capital": null }, "geometry": { "type": "Point", "coordinates": [ -85.7544816, 33.8088011 ] } },
{ "type": "Feature", "properties": { "city": "Jasper", "state": "Alabama", "population": 14338, "latitude": 33.8506846, "longitude": -87.2708475, "capital": null }, "geometry": { "type": "Point", "coordinates": [ -87.2708475, 33.8506846 ] } },
{ "type": "Feature", "properties": { "city": "Leeds", "state": "Alabama", "population": 12346, "latitude": 33.5435009, "longitude": -86.563912, "capital": null }, "geometry": { "type": "Point", "coordinates": [ -86.563912, 33.5435009 ] } },
{ "type": "Feature", "properties": { "city": "Madison", "state": "Alabama", "population": 59785, "latitude": 34.7112468, "longitude": -86.7629616, "capital": null }, "geometry": { "type": "Point", "coordinates": [ -86.7629616, 34.7112468 ] } },
{ "type": "Feature", "properties": { "city": "Millbrook", "state": "Alabama", "population": 17096, "latitude": 32.502599, "longitude": -86.3738474, "capital": null }, "geometry": { "type": "Point", "coordinates": [ -86.3738474, 32.502599 ] } },
{ "type": "Feature", "properties": { "city": "Mobile", "state": "Alabama", "population": 183289, "latitude": 30.6673767, "longitude": -88.1010397, "capital": null }, "geometry": { "type": "Point", "coordinates": [ -88.1010397, 30.6673767 ] } },
{ "type": "Feature", "properties": { "city": "Montgomery", "state": "Alabama", "population": 196986, "latitude": 32.3481621, "longitude": -86.2667598, "capital": "state" }, "geometry": { "type": "Point", "coordinates": [ -86.2667598, 32.3481621 ] } },
{ "type": "Feature", "properties": { "city": "Moody", "state": "Alabama", "population": 13587, "latitude": 33.59855, "longitude": -86.4962908, "capital": null }, "geometry": { "type": "Point", "coordinates": [ -86.4962908, 33.59855 ] } },
{ "type": "Feature", "properties": { "city": "Mountain Brook", "state": "Alabama", "population": 21955, "latitude": 33.4870683, "longitude": -86.7399642, "capital": null }, "geometry": { "type": "Point", "coordinates": [ -86.7399642, 33.4870683 ] } },
{ "type": "Feature", "properties": { "city": "Muscle Shoals", "state": "Alabama", "population": 17019, "latitude": 34.7428862, "longitude": -87.6338354, "capital": null }, "geometry": { "type": "Point", "coordinates": [ -87.6338354, 34.7428862 ] } },
{ "type": "Feature", "properties": { "city": "Northport", "state": "Alabama", "population": 31004, "latitude": 33.25882, "longitude": -87.5988182, "capital": null }, "geometry": { "type": "Point", "coordinates": [ -87.5988182, 33.25882 ] } },
{ "type": "Feature", "properties": { "city": "Opelika", "state": "Alabama", "population": 32787, "latitude": 32.6625686, "longitude": -85.3774048, "capital": null }, "geometry": { "type": "Point", "coordinates": [ -85.3774048, 32.6625686 ] } },
{ "type": "Feature", "properties": { "city": "Oxford", "state": "Alabama", "population": 22002, "latitude": 33.5966213, "longitude": -85.8687863, "capital": null }, "geometry": { "type": "Point", "coordinates": [ -85.8687863, 33.5966213 ] } },
{ "type": "Feature", "properties": { "city": "Ozark", "state": "Alabama", "population": 14299, "latitude": 31.4508489, "longitude": -85.6472469, "capital": null }, "geometry": { "type": "Point", "coordinates": [ -85.6472469, 31.4508489 ] } },
{ "type": "Feature", "properties": { "city": "Pelham", "state": "Alabama", "population": 24755, "latitude": 33.311317, "longitude": -86.7574373, "capital": null }, "geometry": { "type": "Point", "coordinates": [ -86.7574373, 33.311317 ] } },
{ "type": "Feature", "properties": { "city": "Pell City", "state": "Alabama", "population": 13638, "latitude": 33.5610302, "longitude": -86.2668381, "capital": null }, "geometry": { "type": "Point", "coordinates": [ -86.2668381, 33.5610302 ] } },
{ "type": "Feature", "properties": { "city": "Phenix City", "state": "Alabama", "population": 38267, "latitude": 32.4583719, "longitude": -85.0252282, "capital": null }, "geometry": { "type": "Point", "coordinates": [ -85.0252282, 32.4583719 ] } },
{ "type": "Feature", "properties": { "city": "Pike Road", "state": "Alabama", "population": 10701, "latitude": 32.2942369, "longitude": -86.0886551, "capital": null }, "geometry": { "type": "Point", "coordinates": [ -86.0886551, 32.2942369 ] } },
{ "type": "Feature", "properties": { "city": "Prattville", "state": "Alabama", "population": 38776, "latitude": 32.4598806, "longitude": -86.4571291, "capital": null }, "geometry": { "type": "Point", "coordinates": [ -86.4571291, 32.4598806 ] } },
{ "type": "Feature", "properties": { "city": "Prichard", "state": "Alabama", "population": 18870, "latitude": 30.773543, "longitude": -88.1300926, "capital": null }, "geometry": { "type": "Point", "coordinates": [ -88.1300926, 30.773543 ] } },
{ "type": "Feature", "properties": { "city": "Rainbow City", "state": "Alabama", "population": 10271, "latitude": 33.9337179, "longitude": -86.0921063, "capital": null }, "geometry": { "type": "Point", "coordinates": [ -86.0921063, 33.9337179 ] } },
{ "type": "Feature", "properties": { "city": "Russellville", "state": "Alabama", "population": 10771, "latitude": 34.5055146, "longitude": -87.7282758, "capital": null }, "geometry": { "type": "Point", "coordinates": [ -87.7282758, 34.5055146 ] } },
{ "type": "Feature", "properties": { "city": "Saraland", "state": "Alabama", "population": 16358, "latitude": 30.8499962, "longitude": -88.1007406, "capital": null }, "geometry": { "type": "Point", "coordinates": [ -88.1007406, 30.8499962 ] } },
{ "type": "Feature", "properties": { "city": "Scottsboro", "state": "Alabama", "population": 15677, "latitude": 34.6438619, "longitude": -86.0491798, "capital": null }, "geometry": { "type": "Point", "coordinates": [ -86.0491798, 34.6438619 ] } },
{ "type": "Feature", "properties": { "city": "Selma", "state": "Alabama", "population": 17023, "latitude": 32.4165977, "longitude": -87.0335918, "capital": null }, "geometry": { "type": "Point", "coordinates": [ -87.0335918, 32.4165977 ] } },
{ "type": "Feature", "properties": { "city": "Spanish Fort", "state": "Alabama", "population": 10656, "latitude": 30.7226194, "longitude": -87.8643413, "capital": null }, "geometry": { "type": "Point", "coordinates": [ -87.8643413, 30.7226194 ] } },
{ "type": "Feature", "properties": { "city": "Sylacauga", "state": "Alabama", "population": 12278, "latitude": 33.1781013, "longitude": -86.2603227, "capital": null }, "geometry": { "type": "Point", "coordinates": [ -86.2603227, 33.1781013 ] } },
{ "type": "Feature", "properties": { "city": "Talladega", "state": "Alabama", "population": 14674, "latitude": 33.4332818, "longitude": -86.0986332, "capital": null }, "geometry": { "type": "Point", "coordinates": [ -86.0986332, 33.4332818 ] } },
{ "type": "Feature", "properties": { "city": "Troy", "state": "Alabama", "population": 17774, "latitude": 31.8021246, "longitude": -85.9664316, "capital": null }, "geometry": { "type": "Point", "coordinates": [ -85.9664316, 31.8021246 ] } },
{ "type": "Feature", "properties": { "city": "Trussville", "state": "Alabama", "population": 26520, "latitude": 33.641012, "longitude": -86.5810491, "capital": null }, "geometry": { "type": "Point", "coordinates": [ -86.5810491, 33.641012 ] } },
{ "type": "Feature", "properties": { "city": "Tuscaloosa", "state": "Alabama", "population": 110602, "latitude": 33.2351347, "longitude": -87.5270591, "capital": null }, "geometry": { "type": "Point", "coordinates": [ -87.5270591, 33.2351347 ] } },
{ "type": "Feature", "properties": { "city": "Valley", "state": "Alabama", "population": 10323, "latitude": 32.8087396, "longitude": -85.1810894, "capital": null }, "geometry": { "type": "Point", "coordinates": [ -85.1810894, 32.8087396 ] } },
{ "type": "Feature", "properties": { "city": "Vestavia Hills", "state": "Alabama", "population": 38292, "latitude": 33.4518427, "longitude": -86.743866, "capital": null }, "geometry": { "type": "Point", "coordinates": [ -86.743866, 33.4518427 ] } },
{ "type": "Feature", "properties": { "city": "Apache Junction", "state": "Arizona", "population": 40173, "latitude": 33.3813962, "longitude": -111.5400273, "capital": null }, "geometry": { "type": "Point", "coordinates": [ -111.5400273, 33.3813962 ] } },
{ "type": "Feature", "properties": { "city": "Avondale", "state": "Arizona", "population": 91617, "latitude": 33.387582, "longitude": -112.3231449, "capital": null }, "geometry": { "type": "Point", "coordinates": [ -112.3231449, 33.387582 ] } },
{ "type": "Feature", "properties": { "city": "Buckeye", "state": "Arizona", "population": 105567, "latitude": 33.431255, "longitude": -112.6422685, "capital": null }, "geometry": { "type": "Point", "coordinates": [ -112.6422685, 33.431255 ] } },
{ "type": "Feature", "properties": { "city": "Bullhead City", "state": "Arizona", "population": 42920, "latitude": 35.1205456, "longitude": -114.5461094, "capital": null }, "geometry": { "type": "Point", "coordinates": [ -114.5461094, 35.1205456 ] } },
{ "type": "Feature", "properties": { "city": "Camp Verde", "state": "Arizona", "population": 12409, "latitude": 34.5689378, "longitude": -111.8559881, "capital": null }, "geometry": { "type": "Point", "coordinates": [ -111.8559881, 34.5689378 ] } },
{ "type": "Feature", "properties": { "city": "Casa Grande", "state": "Arizona", "population": 60032, "latitude": 32.9069216, "longitude": -111.7634862, "capital": null }, "geometry": { "type": "Point", "coordinates": [ -111.7634862, 32.9069216 ] } },
{ "type": "Feature", "properties": { "city": "Chandler", "state": "Arizona", "population": 280711, "latitude": 33.2822668, "longitude": -111.8512237, "capital": null }, "geometry": { "type": "Point", "coordinates": [ -111.8512237, 33.2822668 ] } },
{ "type": "Feature", "properties": { "city": "Chino Valley", "state": "Arizona", "population": 13669, "latitude": 34.75936, "longitude": -112.4119497, "capital": null }, "geometry": { "type": "Point", "coordinates": [ -112.4119497, 34.75936 ] } },
{ "type": "Feature", "properties": { "city": "Coolidge", "state": "Arizona", "population": 16711, "latitude": 32.9341864, "longitude": -111.5272885, "capital": null }, "geometry": { "type": "Point", "coordinates": [ -111.5272885, 32.9341864 ] } },
{ "type": "Feature", "properties": { "city": "Cottonwood", "state": "Arizona", "population": 12943, "latitude": 34.7508341, "longitude": -111.9840037, "capital": null }, "geometry": { "type": "Point", "coordinates": [ -111.9840037, 34.7508341 ] } },
{ "type": "Feature", "properties": { "city": "Douglas", "state": "Arizona", "population": 15589, "latitude": 31.3602052, "longitude": -109.5393793, "capital": null }, "geometry": { "type": "Point", "coordinates": [ -109.5393793, 31.3602052 ] } },
{ "type": "Feature", "properties": { "city": "El Mirage", "state": "Arizona", "population": 35985, "latitude": 33.5905072, "longitude": -112.3271265, "capital": null }, "geometry": { "type": "Point", "coordinates": [ -112.3271265, 33.5905072 ] } },
{ "type": "Feature", "properties": { "city": "Eloy", "state": "Arizona", "population": 17042, "latitude": 32.7468763, "longitude": -111.5990143, "capital": null }, "geometry": { "type": "Point", "coordinates": [ -111.5990143, 32.7468763 ] } },
{ "type": "Feature", "properties": { "city": "Flagstaff", "state": "Arizona", "population": 75907, "latitude": 35.1872323, "longitude": -111.6194704, "capital": null }, "geometry": { "type": "Point", "coordinates": [ -111.6194704, 35.1872323 ] } },
{ "type": "Feature", "properties": { "city": "Florence", "state": "Arizona", "population": 24795, "latitude": 33.0590189, "longitude": -111.4207986, "capital": null }, "geometry": { "type": "Point", "coordinates": [ -111.4207986, 33.0590189 ] } },
{ "type": "Feature", "properties": { "city": "Fountain Hills", "state": "Arizona", "population": 23785, "latitude": 33.6072756, "longitude": -111.7398046, "capital": null }, "geometry": { "type": "Point", "coordinates": [ -111.7398046, 33.6072756 ] } },
{ "type": "Feature", "properties": { "city": "Gilbert", "state": "Arizona", "population": 275346, "latitude": 33.3099727, "longitude": -111.7461843, "capital": null }, "geometry": { "type": "Point", "coordinates": [ -111.7461843, 33.3099727 ] } },
{ "type": "Feature", "properties": { "city": "Glendale", "state": "Arizona", "population": 252136, "latitude": 33.5757486, "longitude": -112.2453997, "capital": null }, "geometry": { "type": "Point", "coordinates": [ -112.2453997, 33.5757486 ] } },
{ "type": "Feature", "properties": { "city": "Goodyear", "state": "Arizona", "population": 105406, "latitude": 33.2612026, "longitude": -112.3620151, "capital": null }, "geometry": { "type": "Point", "coordinates": [ -112.3620151, 33.2612026 ] } },
{ "type": "Feature", "properties": { "city": "Kingman", "state": "Arizona", "population": 34918, "latitude": 35.2169924, "longitude": -114.0105293, "capital": null }, "geometry": { "type": "Point", "coordinates": [ -114.0105293, 35.2169924 ] } },
{ "type": "Feature", "properties": { "city": "Lake Havasu City", "state": "Arizona", "population": 58926, "latitude": 34.5005891, "longitude": -114.3112911, "capital": null }, "geometry": { "type": "Point", "coordinates": [ -114.3112911, 34.5005891 ] } },
{ "type": "Feature", "properties": { "city": "Marana", "state": "Arizona", "population": 55962, "latitude": 32.4354923, "longitude": -111.1558241, "capital": null }, "geometry": { "type": "Point", "coordinates": [ -111.1558241, 32.4354923 ] } },
{ "type": "Feature", "properties": { "city": "Maricopa", "state": "Arizona", "population": 66290, "latitude": 33.0408294, "longitude": -112.0010318, "capital": null }, "geometry": { "type": "Point", "coordinates": [ -112.0010318, 33.0408294 ] } },
{ "type": "Feature", "properties": { "city": "Mesa", "state": "Arizona", "population": 512498, "latitude": 33.400201, "longitude": -111.7164364, "capital": null }, "geometry": { "type": "Point", "coordinates": [ -111.7164364, 33.400201 ] } },
{ "type": "Feature", "properties": { "city": "Nogales", "state": "Arizona", "population": 19833, "latitude": 31.3624689, "longitude": -110.9336608, "capital": null }, "geometry": { "type": "Point", "coordinates": [ -110.9336608, 31.3624689 ] } },
{ "type": "Feature", "properties": { "city": "Oro Valley", "state": "Arizona", "population": 48226, "latitude": 32.420495, "longitude": -110.9766811, "capital": null }, "geometry": { "type": "Point", "coordinates": [ -110.9766811, 32.420495 ] } },
{ "type": "Feature", "properties": { "city": "Paradise Valley", "state": "Arizona", "population": 12606, "latitude": 33.5434097, "longitude": -111.959531, "capital": null }, "geometry": { "type": "Point", "coordinates": [ -111.959531, 33.5434097 ] } },
{ "type": "Feature", "properties": { "city": "Payson", "state": "Arizona", "population": 16653, "latitude": 34.2433436, "longitude": -111.319468, "capital": null }, "geometry": { "type": "Point", "coordinates": [ -111.319468, 34.2433436 ] } },
{ "type": "Feature", "properties": { "city": "Peoria", "state": "Arizona", "population": 197866, "latitude": 33.7836306, "longitude": -112.2987246, "capital": null }, "geometry": { "type": "Point", "coordinates": [ -112.2987246, 33.7836306 ] } },
{ "type": "Feature", "properties": { "city": "Phoenix", "state": "Arizona", "population": 1644409, "latitude": 33.5718709, "longitude": -112.0891938, "capital": "state" }, "geometry": { "type": "Point", "coordinates": [ -112.0891938, 33.5718709 ] } },
{ "type": "Feature", "properties": { "city": "Prescott", "state": "Arizona", "population": 47603, "latitude": 34.5899482, "longitude": -112.4431765, "capital": null }, "geometry": { "type": "Point", "coordinates": [ -112.4431765, 34.5899482 ] } },
{ "type": "Feature", "properties": { "city": "Prescott Valley", "state": "Arizona", "population": 49075, "latitude": 34.5979299, "longitude": -112.3184968, "capital": null }, "geometry": { "type": "Point", "coordinates": [ -112.3184968, 34.5979299 ] } },
{ "type": "Feature", "properties": { "city": "Queen Creek", "state": "Arizona", "population": 70734, "latitude": 33.2446919, "longitude": -111.6168191, "capital": null }, "geometry": { "type": "Point", "coordinates": [ -111.6168191, 33.2446919 ] } },
{ "type": "Feature", "properties": { "city": "Safford", "state": "Arizona", "population": 10297, "latitude": 32.8334979, "longitude": -109.6964535, "capital": null }, "geometry": { "type": "Point", "coordinates": [ -109.6964535, 32.8334979 ] } },
{ "type": "Feature", "properties": { "city": "Sahuarita", "state": "Arizona", "population": 35638, "latitude": 31.932238, "longitude": -110.9653955, "capital": null }, "geometry": { "type": "Point", "coordinates": [ -110.9653955, 31.932238 ] } },
{ "type": "Feature", "properties": { "city": "San Luis", "state": "Arizona", "population": 35770, "latitude": 32.4911391, "longitude": -114.7083958, "capital": null }, "geometry": { "type": "Point", "coordinates": [ -114.7083958, 32.4911391 ] } },
{ "type": "Feature", "properties": { "city": "Scottsdale", "state": "Arizona", "population": 243050, "latitude": 33.6870743, "longitude": -111.8650908, "capital": null }, "geometry": { "type": "Point", "coordinates": [ -111.8650908, 33.6870743 ] } },
{ "type": "Feature", "properties": { "city": "Show Low", "state": "Arizona", "population": 12056, "latitude": 34.2670945, "longitude": -110.0383771, "capital": null }, "geometry": { "type": "Point", "coordinates": [ -110.0383771, 34.2670945 ] } },
{ "type": "Feature", "properties": { "city": "Sierra Vista", "state": "Arizona", "population": 45439, "latitude": 31.5629101, "longitude": -110.3152846, "capital": null }, "geometry": { "type": "Point", "coordinates": [ -110.3152846, 31.5629101 ] } },
{ "type": "Feature", "properties": { "city": "Somerton", "state": "Arizona", "population": 14514, "latitude": 32.6006613, "longitude": -114.6994479, "capital": null }, "geometry": { "type": "Point", "coordinates": [ -114.6994479, 32.6006613 ] } },
{ "type": "Feature", "properties": { "city": "Surprise", "state": "Arizona", "population": 154198, "latitude": 33.6815341, "longitude": -112.4513422, "capital": null }, "geometry": { "type": "Point", "coordinates": [ -112.4513422, 33.6815341 ] } },
{ "type": "Feature", "properties": { "city": "Tempe", "state": "Arizona", "population": 185950, "latitude": 33.388114, "longitude": -111.9318812, "capital": null }, "geometry": { "type": "Point", "coordinates": [ -111.9318812, 33.388114 ] } },
{ "type": "Feature", "properties": { "city": "Tucson", "state": "Arizona", "population": 546574, "latitude": 32.1538718, "longitude": -110.8787626, "capital": null }, "geometry": { "type": "Point", "coordinates": [ -110.8787626, 32.1538718 ] } },
{ "type": "Feature", "properties": { "city": "Yuma", "state": "Arizona", "population": 98527, "latitude": 32.5995696, "longitude": -114.5490251, "capital": null }, "geometry": { "type": "Point", "coordinates": [ -114.5490251, 32.5995696 ] } },
{ "type": "Feature", "properties": { "city": "Arkadelphia", "state": "Arkansas", "population": 10258, "latitude": 34.125417, "longitude": -93.0734467, "capital": null }, "geometry": { "type": "Point", "coordinates": [ -93.0734467, 34.125417 ] } },
{ "type": "Feature", "properties": { "city": "Batesville", "state": "Arkansas", "population": 11173, "latitude": 35.768695, "longitude": -91.6225538, "capital": null }, "geometry": { "type": "Point", "coordinates": [ -91.6225538, 35.768695 ] } },
{ "type": "Feature", "properties": { "city": "Bella Vista", "state": "Arkansas", "population": 31733, "latitude": 36.4666851, "longitude": -94.2708003, "capital": null }, "geometry": { "type": "Point", "coordinates": [ -94.2708003, 36.4666851 ] } },
{ "type": "Feature", "properties": { "city": "Benton", "state": "Arkansas", "population": 36593, "latitude": 34.5775899, "longitude": -92.5713159, "capital": null }, "geometry": { "type": "Point", "coordinates": [ -92.5713159, 34.5775899 ] } },
{ "type": "Feature", "properties": { "city": "Bentonville", "state": "Arkansas", "population": 57868, "latitude": 36.3524044, "longitude": -94.2316695, "capital": null }, "geometry": { "type": "Point", "coordinates": [ -94.2316695, 36.3524044 ] } },
{ "type": "Feature", "properties": { "city": "Blytheville", "state": "Arkansas", "population": 12706, "latitude": 35.932145, "longitude": -89.9050922, "capital": null }, "geometry": { "type": "Point", "coordinates": [ -89.9050922, 35.932145 ] } },
{ "type": "Feature", "properties": { "city": "Bryant", "state": "Arkansas", "population": 21501, "latitude": 34.6152466, "longitude": -92.4914208, "capital": null }, "geometry": { "type": "Point", "coordinates": [ -92.4914208, 34.6152466 ] } },
{ "type": "Feature", "properties": { "city": "Cabot", "state": "Arkansas", "population": 26844, "latitude": 34.9765542, "longitude": -92.0273947, "capital": null }, "geometry": { "type": "Point", "coordinates": [ -92.0273947, 34.9765542 ] } },
{ "type": "Feature", "properties": { "city": "Camden", "state": "Arkansas", "population": 10298, "latitude": 33.5672098, "longitude": -92.8466457, "capital": null }, "geometry": { "type": "Point", "coordinates": [ -92.8466457, 33.5672098 ] } },
{ "type": "Feature", "properties": { "city": "Centerton", "state": "Arkansas", "population": 21525, "latitude": 36.357204, "longitude": -94.2980884, "capital": null }, "geometry": { "type": "Point", "coordinates": [ -94.2980884, 36.357204 ] } },
{ "type": "Feature", "properties": { "city": "Conway", "state": "Arkansas", "population": 67617, "latitude": 35.0750084, "longitude": -92.469048, "capital": null }, "geometry": { "type": "Point", "coordinates": [ -92.469048, 35.0750084 ] } },
{ "type": "Feature", "properties": { "city": "El Dorado", "state": "Arkansas", "population": 17063, "latitude": 33.2183439, "longitude": -92.6640895, "capital": null }, "geometry": { "type": "Point", "coordinates": [ -92.6640895, 33.2183439 ] } },
{ "type": "Feature", "properties": { "city": "Fayetteville", "state": "Arkansas", "population": 99285, "latitude": 36.0715635, "longitude": -94.1662706, "capital": null }, "geometry": { "type": "Point", "coordinates": [ -94.1662706, 36.0715635 ] } },
{ "type": "Feature", "properties": { "city": "Forrest City", "state": "Arkansas", "population": 12676, "latitude": 35.0134521, "longitude": -90.7931153, "capital": null }, "geometry": { "type": "Point", "coordinates": [ -90.7931153, 35.0134521 ] } },
{ "type": "Feature", "properties": { "city": "Fort Smith", "state": "Arkansas", "population": 89992, "latitude": 35.3493557, "longitude": -94.3694658, "capital": null }, "geometry": { "type": "Point", "coordinates": [ -94.3694658, 35.3493557 ] } },
{ "type": "Feature", "properties": { "city": "Harrison", "state": "Arkansas", "population": 13338, "latitude": 36.2438006, "longitude": -93.1198325, "capital": null }, "geometry": { "type": "Point", "coordinates": [ -93.1198325, 36.2438006 ] } },
{ "type": "Feature", "properties": { "city": "Hot Springs", "state": "Arkansas", "population": 38109, "latitude": 34.4892269, "longitude": -93.0499552, "capital": null }, "geometry": { "type": "Point", "coordinates": [ -93.0499552, 34.4892269 ] } },
{ "type": "Feature", "properties": { "city": "Jacksonville", "state": "Arkansas", "population": 29130, "latitude": 34.880697, "longitude": -92.1303162, "capital": null }, "geometry": { "type": "Point", "coordinates": [ -92.1303162, 34.880697 ] } },
{ "type": "Feature", "properties": { "city": "Jonesboro", "state": "Arkansas", "population": 79876, "latitude": 35.8211964, "longitude": -90.6790991, "capital": null }, "geometry": { "type": "Point", "coordinates": [ -90.6790991, 35.8211964 ] } },
{ "type": "Feature", "properties": { "city": "Little Rock", "state": "Arkansas", "population": 202864, "latitude": 34.7256757, "longitude": -92.3578717, "capital": "state" }, "geometry": { "type": "Point", "coordinates": [ -92.3578717, 34.7256757 ] } },
{ "type": "Feature", "properties": { "city": "Lowell", "state": "Arkansas", "population": 11050, "latitude": 36.256109, "longitude": -94.1531393, "capital": null }, "geometry": { "type": "Point", "coordinates": [ -94.1531393, 36.256109 ] } },
{ "type": "Feature", "properties": { "city": "Magnolia", "state": "Arkansas", "population": 10780, "latitude": 33.2774876, "longitude": -93.2260908, "capital": null }, "geometry": { "type": "Point", "coordinates": [ -93.2260908, 33.2774876 ] } },
{ "type": "Feature", "properties": { "city": "Malvern", "state": "Arkansas", "population": 10967, "latitude": 34.3733906, "longitude": -92.8204383, "capital": null }, "geometry": { "type": "Point", "coordinates": [ -92.8204383, 34.3733906 ] } },
{ "type": "Feature", "properties": { "city": "Marion", "state": "Arkansas", "population": 13596, "latitude": 35.2041813, "longitude": -90.2060676, "capital": null }, "geometry": { "type": "Point", "coordinates": [ -90.2060676, 35.2041813 ] } },
{ "type": "Feature", "properties": { "city": "Maumelle", "state": "Arkansas", "population": 19358, "latitude": 34.8527, "longitude": -92.4004317, "capital": null }, "geometry": { "type": "Point", "coordinates": [ -92.4004317, 34.8527 ] } },
{ "type": "Feature", "properties": { "city": "Mountain Home", "state": "Arkansas", "population": 13150, "latitude": 36.3351182, "longitude": -92.3840393, "capital": null }, "geometry": { "type": "Point", "coordinates": [ -92.3840393, 36.3351182 ] } },
{ "type": "Feature", "properties": { "city": "North Little Rock", "state": "Arkansas", "population": 64627, "latitude": 34.7806668, "longitude": -92.235467, "capital": null }, "geometry": { "type": "Point", "coordinates": [ -92.235467, 34.7806668 ] } },
{ "type": "Feature", "properties": { "city": "Paragould", "state": "Arkansas", "population": 30178, "latitude": 36.0555198, "longitude": -90.5148665, "capital": null }, "geometry": { "type": "Point", "coordinates": [ -90.5148665, 36.0555198 ] } },
{ "type": "Feature", "properties": { "city": "Pine Bluff", "state": "Arkansas", "population": 39495, "latitude": 34.2115622, "longitude": -92.0172543, "capital": null }, "geometry": { "type": "Point", "coordinates": [ -92.0172543, 34.2115622 ] } },
{ "type": "Feature", "properties": { "city": "Rogers", "state": "Arkansas", "population": 72999, "latitude": 36.3169718, "longitude": -94.153096, "capital": null }, "geometry": { "type": "Point", "coordinates": [ -94.153096, 36.3169718 ] } },
{ "type": "Feature", "properties": { "city": "Russellville", "state": "Arkansas", "population": 29133, "latitude": 35.2762432, "longitude": -93.1383222, "capital": null }, "geometry": { "type": "Point", "coordinates": [ -93.1383222, 35.2762432 ] } },
{ "type": "Feature", "properties": { "city": "Searcy", "state": "Arkansas", "population": 23009, "latitude": 35.2418104, "longitude": -91.7350986, "capital": null }, "geometry": { "type": "Point", "coordinates": [ -91.7350986, 35.2418104 ] } },
{ "type": "Feature", "properties": { "city": "Sherwood", "state": "Arkansas", "population": 33082, "latitude": 34.8506802, "longitude": -92.2028867, "capital": null }, "geometry": { "type": "Point", "coordinates": [ -92.2028867, 34.8506802 ] } },
{ "type": "Feature", "properties": { "city": "Siloam Springs", "state": "Arkansas", "population": 18654, "latitude": 36.1848241, "longitude": -94.5309443, "capital": null }, "geometry": { "type": "Point", "coordinates": [ -94.5309443, 36.1848241 ] } },
{ "type": "Feature", "properties": { "city": "Springdale", "state": "Arkansas", "population": 87672, "latitude": 36.191201, "longitude": -94.1556239, "capital": null }, "geometry": { "type": "Point", "coordinates": [ -94.1556239, 36.191201 ] } },
{ "type": "Feature", "properties": { "city": "Texarkana", "state": "Arkansas", "population": 29306, "latitude": 33.435932, "longitude": -93.9959695, "capital": null }, "geometry": { "type": "Point", "coordinates": [ -93.9959695, 33.435932 ] } },
{ "type": "Feature", "properties": { "city": "Van Buren", "state": "Arkansas", "population": 23755, "latitude": 35.448441, "longitude": -94.352712, "capital": null }, "geometry": { "type": "Point", "coordinates": [ -94.352712, 35.448441 ] } },
{ "type": "Feature", "properties": { "city": "West Memphis", "state": "Arkansas", "population": 23795, "latitude": 35.1530436, "longitude": -90.1995971, "capital": null }, "geometry": { "type": "Point", "coordinates": [ -90.1995971, 35.1530436 ] } },
{ "type": "Feature", "properties": { "city": "Adelanto", "state": "California", "population": 38783, "latitude": 34.5813799, "longitude": -117.4396932, "capital": null }, "geometry": { "type": "Point", "coordinates": [ -117.4396932, 34.5813799 ] } },
{ "type": "Feature", "properties": { "city": "Agoura Hills", "state": "California", "population": 19464, "latitude": 34.1510038, "longitude": -118.7608775, "capital": null }, "geometry": { "type": "Point", "coordinates": [ -118.7608775, 34.1510038 ] } },
{ "type": "Feature", "properties": { "city": "Alameda", "state": "California", "population": 76040, "latitude": 37.7557721, "longitude": -122.2742695, "capital": null }, "geometry": { "type": "Point", "coordinates": [ -122.2742695, 37.7557721 ] } },
{ "type": "Feature", "properties": { "city": "Albany", "state": "California", "population": 19415, "latitude": 37.8846458, "longitude": -122.3290511, "capital": null }, "geometry": { "type": "Point", "coordinates": [ -122.3290511, 37.8846458 ] } },
{ "type": "Feature", "properties": { "city": "Alhambra", "state": "California", "population": 80259, "latitude": 34.083973, "longitude": -118.135515, "capital": null }, "geometry": { "type": "Point", "coordinates": [ -118.135515, 34.083973 ] } },
{ "type": "Feature", "properties": { "city": "Aliso Viejo", "state": "California", "population": 51221, "latitude": 33.57921, "longitude": -117.7288978, "capital": null }, "geometry": { "type": "Point", "coordinates": [ -117.7288978, 33.57921 ] } },
{ "type": "Feature", "properties": { "city": "American Canyon", "state": "California", "population": 21432, "latitude": 38.1795874, "longitude": -122.2583515, "capital": null }, "geometry": { "type": "Point", "coordinates": [ -122.2583515, 38.1795874 ] } },
{ "type": "Feature", "properties": { "city": "Anaheim", "state": "California", "population": 344461, "latitude": 33.8389984, "longitude": -117.8573937, "capital": null }, "geometry": { "type": "Point", "coordinates": [ -117.8573937, 33.8389984 ] } },
{ "type": "Feature", "properties": { "city": "Anderson", "state": "California", "population": 11307, "latitude": 40.4496609, "longitude": -122.2950288, "capital": null }, "geometry": { "type": "Point", "coordinates": [ -122.2950288, 40.4496609 ] } },
{ "type": "Feature", "properties": { "city": "Antioch", "state": "California", "population": 115264, "latitude": 37.9786868, "longitude": -121.795986, "capital": null }, "geometry": { "type": "Point", "coordinates": [ -121.795986, 37.9786868 ] } },
{ "type": "Feature", "properties": { "city": "Apple Valley", "state": "California", "population": 75867, "latitude": 34.535172, "longitude": -117.2108986, "capital": null }, "geometry": { "type": "Point", "coordinates": [ -117.2108986, 34.535172 ] } },
{ "type": "Feature", "properties": { "city": "Arcadia", "state": "California", "population": 54857, "latitude": 34.1341824, "longitude": -118.0372962, "capital": null }, "geometry": { "type": "Point", "coordinates": [ -118.0372962, 34.1341824 ] } },
{ "type": "Feature", "properties": { "city": "Arcata", "state": "California", "population": 18555, "latitude": 40.8616619, "longitude": -124.0752237, "capital": null }, "geometry": { "type": "Point", "coordinates": [ -124.0752237, 40.8616619 ] } },
{ "type": "Feature", "properties": { "city": "Arroyo Grande", "state": "California", "population": 18380, "latitude": 35.1241492, "longitude": -120.5845327, "capital": null }, "geometry": { "type": "Point", "coordinates": [ -120.5845327, 35.1241492 ] } },
{ "type": "Feature", "properties": { "city": "Artesia", "state": "California", "population": 15774, "latitude": 33.8675912, "longitude": -118.0806338, "capital": null }, "geometry": { "type": "Point", "coordinates": [ -118.0806338, 33.8675912 ] } },
{ "type": "Feature", "properties": { "city": "Arvin", "state": "California", "population": 19611, "latitude": 35.1943611, "longitude": -118.8305687, "capital": null }, "geometry": { "type": "Point", "coordinates": [ -118.8305687, 35.1943611 ] } },
{ "type": "Feature", "properties": { "city": "Atascadero", "state": "California", "population": 29684, "latitude": 35.4826891, "longitude": -120.6857224, "capital": null }, "geometry": { "type": "Point", "coordinates": [ -120.6857224, 35.4826891 ] } },
{ "type": "Feature", "properties": { "city": "Atwater", "state": "California", "population": 32372, "latitude": 37.352899, "longitude": -120.5958894, "capital": null }, "geometry": { "type": "Point", "coordinates": [ -120.5958894, 37.352899 ] } },
{ "type": "Feature", "properties": { "city": "Auburn", "state": "California", "population": 13737, "latitude": 38.8949136, "longitude": -121.0777135, "capital": null }, "geometry": { "type": "Point", "coordinates": [ -121.0777135, 38.8949136 ] } },
{ "type": "Feature", "properties": { "city": "Avenal", "state": "California", "population": 13374, "latitude": 36.0311072, "longitude": -120.1161739, "capital": null }, "geometry": { "type": "Point", "coordinates": [ -120.1161739, 36.0311072 ] } },
{ "type": "Feature", "properties": { "city": "Azusa", "state": "California", "population": 48824, "latitude": 34.1385797, "longitude": -117.9123765, "capital": null }, "geometry": { "type": "Point", "coordinates": [ -117.9123765, 34.1385797 ] } },
{ "type": "Feature", "properties": { "city": "Bakersfield", "state": "California", "population": 410647, "latitude": 35.3528505, "longitude": -119.0358922, "capital": null }, "geometry": { "type": "Point", "coordinates": [ -119.0358922, 35.3528505 ] } },
{ "type": "Feature", "properties": { "city": "Baldwin Park", "state": "California", "population": 69455, "latitude": 34.0828584, "longitude": -117.9721288, "capital": null }, "geometry": { "type": "Point", "coordinates": [ -117.9721288, 34.0828584 ] } },
{ "type": "Feature", "properties": { "city": "Banning", "state": "California", "population": 30683, "latitude": 33.9459026, "longitude": -116.8990441, "capital": null }, "geometry": { "type": "Point", "coordinates": [ -116.8990441, 33.9459026 ] } },
{ "type": "Feature", "properties": { "city": "Barstow", "state": "California", "population": 25231, "latitude": 34.8660569, "longitude": -117.0471185, "capital": null }, "geometry": { "type": "Point", "coordinates": [ -117.0471185, 34.8660569 ] } },
{ "type": "Feature", "properties": { "city": "Beaumont", "state": "California", "population": 56349, "latitude": 33.9075431, "longitude": -116.9765357, "capital": null }, "geometry": { "type": "Point", "coordinates": [ -116.9765357, 33.9075431 ] } },
{ "type": "Feature", "properties": { "city": "Bell", "state": "California", "population": 32466, "latitude": 33.980075, "longitude": -118.1797493, "capital": null }, "geometry": { "type": "Point", "coordinates": [ -118.1797493, 33.980075 ] } },
{ "type": "Feature", "properties": { "city": "Bellflower", "state": "California", "population": 76405, "latitude": 33.8880357, "longitude": -118.1271134, "capital": null }, "geometry": { "type": "Point", "coordinates": [ -118.1271134, 33.8880357 ] } },
{ "type": "Feature", "properties": { "city": "Bell Gardens", "state": "California", "population": 37927, "latitude": 33.966321, "longitude": -118.1550181, "capital": null }, "geometry": { "type": "Point", "coordinates": [ -118.1550181, 33.966321 ] } },
{ "type": "Feature", "properties": { "city": "Belmont", "state": "California", "population": 26773, "latitude": 37.5153688, "longitude": -122.2953932, "capital": null }, "geometry": { "type": "Point", "coordinates": [ -122.2953932, 37.5153688 ] } },
{ "type": "Feature", "properties": { "city": "Benicia", "state": "California", "population": 26567, "latitude": 38.0724973, "longitude": -122.1525424, "capital": null }, "geometry": { "type": "Point", "coordinates": [ -122.1525424, 38.0724973 ] } },
{ "type": "Feature", "properties": { "city": "Berkeley", "state": "California", "population": 118950, "latitude": 37.8663942, "longitude": -122.2989164, "capital": null }, "geometry": { "type": "Point", "coordinates": [ -122.2989164, 37.8663942 ] } },
{ "type": "Feature", "properties": { "city": "Beverly Hills", "state": "California", "population": 31326, "latitude": 34.0785618, "longitude": -118.4021164, "capital": null }, "geometry": { "type": "Point", "coordinates": [ -118.4021164, 34.0785618 ] } },
{ "type": "Feature", "properties": { "city": "Blythe", "state": "California", "population": 17358, "latitude": 33.6218997, "longitude": -114.6195596, "capital": null }, "geometry": { "type": "Point", "coordinates": [ -114.6195596, 33.6218997 ] } },
{ "type": "Feature", "properties": { "city": "Brawley", "state": "California", "population": 26862, "latitude": 32.9784542, "longitude": -115.5285688, "capital": null }, "geometry": { "type": "Point", "coordinates": [ -115.5285688, 32.9784542 ] } },
{ "type": "Feature", "properties": { "city": "Brea", "state": "California", "population": 46993, "latitude": 33.9252514, "longitude": -117.8646864, "capital": null }, "geometry": { "type": "Point", "coordinates": [ -117.8646864, 33.9252514 ] } },
{ "type": "Feature", "properties": { "city": "Brentwood", "state": "California", "population": 66127, "latitude": 37.9355778, "longitude": -121.7189698, "capital": null }, "geometry": { "type": "Point", "coordinates": [ -121.7189698, 37.9355778 ] } },
{ "type": "Feature", "properties": { "city": "Buena Park", "state": "California", "population": 82450, "latitude": 33.8571931, "longitude": -118.0046041, "capital": null }, "geometry": { "type": "Point", "coordinates": [ -118.0046041, 33.8571931 ] } },
{ "type": "Feature", "properties": { "city": "Burbank", "state": "California", "population": 103920, "latitude": 34.1879077, "longitude": -118.323489, "capital": null }, "geometry": { "type": "Point", "coordinates": [ -118.323489, 34.1879077 ] } },
{ "type": "Feature", "properties": { "city": "Burlingame", "state": "California", "population": 30559, "latitude": 37.5893605, "longitude": -122.362983, "capital": null }, "geometry": { "type": "Point", "coordinates": [ -122.362983, 37.5893605 ] } },
{ "type": "Feature", "properties": { "city": "Calabasas", "state": "California", "population": 22491, "latitude": 34.1374947, "longitude": -118.6688304, "capital": null }, "geometry": { "type": "Point", "coordinates": [ -118.6688304, 34.1374947 ] } },
{ "type": "Feature", "properties": { "city": "Calexico", "state": "California", "population": 38249, "latitude": 32.6848587, "longitude": -115.4947381, "capital": null }, "geometry": { "type": "Point", "coordinates": [ -115.4947381, 32.6848587 ] } },
{ "type": "Feature", "properties": { "city": "California City", "state": "California", "population": 15127, "latitude": 35.1578139, "longitude": -117.8722241, "capital": null }, "geometry": { "type": "Point", "coordinates": [ -117.8722241, 35.1578139 ] } },
{ "type": "Feature", "properties": { "city": "Calimesa", "state": "California", "population": 11017, "latitude": 33.9873574, "longitude": -117.0542141, "capital": null }, "geometry": { "type": "Point", "coordinates": [ -117.0542141, 33.9873574 ] } },
{ "type": "Feature", "properties": { "city": "Camarillo", "state": "California", "population": 70282, "latitude": 34.2229954, "longitude": -119.0321552, "capital": null }, "geometry": { "type": "Point", "coordinates": [ -119.0321552, 34.2229954 ] } },
{ "type": "Feature", "properties": { "city": "Campbell", "state": "California", "population": 42286, "latitude": 37.2801872, "longitude": -121.9538198, "capital": null }, "geometry": { "type": "Point", "coordinates": [ -121.9538198, 37.2801872 ] } },
{ "type": "Feature", "properties": { "city": "Canyon Lake", "state": "California", "population": 11142, "latitude": 33.6882921, "longitude": -117.2620406, "capital": null }, "geometry": { "type": "Point", "coordinates": [ -117.2620406, 33.6882921 ] } },
{ "type": "Feature", "properties": { "city": "Carlsbad", "state": "California", "population": 114160, "latitude": 33.1246486, "longitude": -117.2835297, "capital": null }, "geometry": { "type": "Point", "coordinates": [ -117.2835297, 33.1246486 ] } },
{ "type": "Feature", "properties": { "city": "Carpinteria", "state": "California", "population": 12950, "latitude": 34.3774019, "longitude": -119.5135849, "capital": null }, "geometry": { "type": "Point", "coordinates": [ -119.5135849, 34.3774019 ] } },
{ "type": "Feature", "properties": { "city": "Carson", "state": "California", "population": 92388, "latitude": 33.8374091, "longitude": -118.2559353, "capital": null }, "geometry": { "type": "Point", "coordinates": [ -118.2559353, 33.8374091 ] } },
{ "type": "Feature", "properties": { "city": "Cathedral City", "state": "California", "population": 52494, "latitude": 33.8361256, "longitude": -116.4642378, "capital": null }, "geometry": { "type": "Point", "coordinates": [ -116.4642378, 33.8361256 ] } },
{ "type": "Feature", "properties": { "city": "Ceres", "state": "California", "population": 48988, "latitude": 37.5952404, "longitude": -120.9619396, "capital": null }, "geometry": { "type": "Point", "coordinates": [ -120.9619396, 37.5952404 ] } },
{ "type": "Feature", "properties": { "city": "Cerritos", "state": "California", "population": 47475, "latitude": 33.867743, "longitude": -118.068604, "capital": null }, "geometry": { "type": "Point", "coordinates": [ -118.068604, 33.867743 ] } },
{ "type": "Feature", "properties": { "city": "Chico", "state": "California", "population": 101299, "latitude": 39.7574697, "longitude": -121.8163317, "capital": null }, "geometry": { "type": "Point", "coordinates": [ -121.8163317, 39.7574697 ] } },
{ "type": "Feature", "properties": { "city": "Chino", "state": "California", "population": 93140, "latitude": 33.9836519, "longitude": -117.6654063, "capital": null }, "geometry": { "type": "Point", "coordinates": [ -117.6654063, 33.9836519 ] } },
{ "type": "Feature", "properties": { "city": "Chino Hills", "state": "California", "population": 77949, "latitude": 33.9508263, "longitude": -117.7253851, "capital": null }, "geometry": { "type": "Point", "coordinates": [ -117.7253851, 33.9508263 ] } },
{ "type": "Feature", "properties": { "city": "Chowchilla", "state": "California", "population": 18738, "latitude": 37.1094993, "longitude": -120.2349456, "capital": null }, "geometry": { "type": "Point", "coordinates": [ -120.2349456, 37.1094993 ] } },
{ "type": "Feature", "properties": { "city": "Chula Vista", "state": "California", "population": 279170, "latitude": 32.6281239, "longitude": -117.0144155, "capital": null }, "geometry": { "type": "Point", "coordinates": [ -117.0144155, 32.6281239 ] } },
{ "type": "Feature", "properties": { "city": "Citrus Heights", "state": "California", "population": 86433, "latitude": 38.6948103, "longitude": -121.2879525, "capital": null }, "geometry": { "type": "Point", "coordinates": [ -121.2879525, 38.6948103 ] } },
{ "type": "Feature", "properties": { "city": "Claremont", "state": "California", "population": 36001, "latitude": 34.1258887, "longitude": -117.7153342, "capital": null }, "geometry": { "type": "Point", "coordinates": [ -117.7153342, 34.1258887 ] } },
{ "type": "Feature", "properties": { "city": "Clayton", "state": "California", "population": 10904, "latitude": 37.9403215, "longitude": -121.9300745, "capital": null }, "geometry": { "type": "Point", "coordinates": [ -121.9300745, 37.9403215 ] } },
{ "type": "Feature", "properties": { "city": "Clearlake", "state": "California", "population": 16693, "latitude": 38.9589382, "longitude": -122.6330672, "capital": null }, "geometry": { "type": "Point", "coordinates": [ -122.6330672, 38.9589382 ] } },
{ "type": "Feature", "properties": { "city": "Clovis", "state": "California", "population": 124556, "latitude": 36.828566, "longitude": -119.6828417, "capital": null }, "geometry": { "type": "Point", "coordinates": [ -119.6828417, 36.828566 ] } },
{ "type": "Feature", "properties": { "city": "Coachella", "state": "California", "population": 42835, "latitude": 33.6903799, "longitude": -116.1431282, "capital": null }, "geometry": { "type": "Point", "coordinates": [ -116.1431282, 33.6903799 ] } },
{ "type": "Feature", "properties": { "city": "Coalinga", "state": "California", "population": 17024, "latitude": 36.1421655, "longitude": -120.3243835, "capital": null }, "geometry": { "type": "Point", "coordinates": [ -120.3243835, 36.1421655 ] } },
{ "type": "Feature", "properties": { "city": "Colton", "state": "California", "population": 53918, "latitude": 34.0536172, "longitude": -117.3252995, "capital": null }, "geometry": { "type": "Point", "coordinates": [ -117.3252995, 34.0536172 ] } },
{ "type": "Feature", "properties": { "city": "Commerce", "state": "California", "population": 11828, "latitude": 33.9962922, "longitude": -118.1518836, "capital": null }, "geometry": { "type": "Point", "coordinates": [ -118.1518836, 33.9962922 ] } },
{ "type": "Feature", "properties": { "city": "Compton", "state": "California", "population": 91988, "latitude": 33.8929615, "longitude": -118.2275078, "capital": null }, "geometry": { "type": "Point", "coordinates": [ -118.2275078, 33.8929615 ] } },
{ "type": "Feature", "properties": { "city": "Concord", "state": "California", "population": 122625, "latitude": 37.9721841, "longitude": -122.0015871, "capital": null }, "geometry": { "type": "Point", "coordinates": [ -122.0015871, 37.9721841 ] } },
{ "type": "Feature", "properties": { "city": "Corcoran", "state": "California", "population": 22837, "latitude": 36.084057, "longitude": -119.5612683, "capital": null }, "geometry": { "type": "Point", "coordinates": [ -119.5612683, 36.084057 ] } },
{ "type": "Feature", "properties": { "city": "Corona", "state": "California", "population": 159567, "latitude": 33.8615811, "longitude": -117.5648752, "capital": null }, "geometry": { "type": "Point", "coordinates": [ -117.5648752, 33.8615811 ] } },
{ "type": "Feature", "properties": { "city": "Coronado", "state": "California", "population": 18702, "latitude": 32.6421454, "longitude": -117.1659768, "capital": null }, "geometry": { "type": "Point", "coordinates": [ -117.1659768, 32.6421454 ] } },
{ "type": "Feature", "properties": { "city": "Corte Madera", "state": "California", "population": 10006, "latitude": 37.9255814, "longitude": -122.507544, "capital": null }, "geometry": { "type": "Point", "coordinates": [ -122.507544, 37.9255814 ] } },
{ "type": "Feature", "properties": { "city": "Costa Mesa", "state": "California", "population": 109521, "latitude": 33.6667, "longitude": -117.9135037, "capital": null }, "geometry": { "type": "Point", "coordinates": [ -117.9135037, 33.6667 ] } },
{ "type": "Feature", "properties": { "city": "Covina", "state": "California", "population": 49489, "latitude": 34.0903001, "longitude": -117.8818145, "capital": null }, "geometry": { "type": "Point", "coordinates": [ -117.8818145, 34.0903001 ] } },
{ "type": "Feature", "properties": { "city": "Cudahy", "state": "California", "population": 21969, "latitude": 33.9631301, "longitude": -118.183127, "capital": null }, "geometry": { "type": "Point", "coordinates": [ -118.183127, 33.9631301 ] } },
{ "type": "Feature", "properties": { "city": "Culver City", "state": "California", "population": 39515, "latitude": 34.0057845, "longitude": -118.3968296, "capital": null }, "geometry": { "type": "Point", "coordinates": [ -118.3968296, 34.0057845 ] } },
{ "type": "Feature", "properties": { "city": "Cupertino", "state": "California", "population": 57856, "latitude": 37.3168198, "longitude": -122.0465102, "capital": null }, "geometry": { "type": "Point", "coordinates": [ -122.0465102, 37.3168198 ] } },
{ "type": "Feature", "properties": { "city": "Cypress", "state": "California", "population": 49243, "latitude": 33.8170933, "longitude": -118.0385736, "capital": null }, "geometry": { "type": "Point", "coordinates": [ -118.0385736, 33.8170933 ] } },
{ "type": "Feature", "properties": { "city": "Daly City", "state": "California", "population": 100007, "latitude": 37.686193, "longitude": -122.4686688, "capital": null }, "geometry": { "type": "Point", "coordinates": [ -122.4686688, 37.686193 ] } },
{ "type": "Feature", "properties": { "city": "Dana Point", "state": "California", "population": 32465, "latitude": 33.4730026, "longitude": -117.6963419, "capital": null }, "geometry": { "type": "Point", "coordinates": [ -117.6963419, 33.4730026 ] } },
{ "type": "Feature", "properties": { "city": "Danville", "state": "California", "population": 42732, "latitude": 37.8121416, "longitude": -121.9698235, "capital": null }, "geometry": { "type": "Point", "coordinates": [ -121.9698235, 37.8121416 ] } },
{ "type": "Feature", "properties": { "city": "Davis", "state": "California", "population": 67048, "latitude": 38.5552782, "longitude": -121.7370485, "capital": null }, "geometry": { "type": "Point", "coordinates": [ -121.7370485, 38.5552782 ] } },
{ "type": "Feature", "properties": { "city": "Delano", "state": "California", "population": 50843, "latitude": 35.7661591, "longitude": -119.263527, "capital": null }, "geometry": { "type": "Point", "coordinates": [ -119.263527, 35.7661591 ] } },
{ "type": "Feature", "properties": { "city": "Desert Hot Springs", "state": "California", "population": 33091, "latitude": 33.9548883, "longitude": -116.5428191, "capital": null }, "geometry": { "type": "Point", "coordinates": [ -116.5428191, 33.9548883 ] } },
{ "type": "Feature", "properties": { "city": "Diamond Bar", "state": "California", "population": 52855, "latitude": 33.9991633, "longitude": -117.8161331, "capital": null }, "geometry": { "type": "Point", "coordinates": [ -117.8161331, 33.9991633 ] } },
{ "type": "Feature", "properties": { "city": "Dinuba", "state": "California", "population": 25285, "latitude": 36.5451211, "longitude": -119.3988045, "capital": null }, "geometry": { "type": "Point", "coordinates": [ -119.3988045, 36.5451211 ] } },
{ "type": "Feature", "properties": { "city": "Dixon", "state": "California", "population": 19143, "latitude": 38.4469092, "longitude": -121.8249782, "capital": null }, "geometry": { "type": "Point", "coordinates": [ -121.8249782, 38.4469092 ] } },
{ "type": "Feature", "properties": { "city": "Downey", "state": "California", "population": 109934, "latitude": 33.9378619, "longitude": -118.1311449, "capital": null }, "geometry": { "type": "Point", "coordinates": [ -118.1311449, 33.9378619 ] } },
{ "type": "Feature", "properties": { "city": "Duarte", "state": "California", "population": 21807, "latitude": 34.1609674, "longitude": -117.9504474, "capital": null }, "geometry": { "type": "Point", "coordinates": [ -117.9504474, 34.1609674 ] } },
{ "type": "Feature", "properties": { "city": "Dublin", "state": "California", "population": 72060, "latitude": 37.7161372, "longitude": -121.8962293, "capital": null }, "geometry": { "type": "Point", "coordinates": [ -121.8962293, 37.7161372 ] } },
{ "type": "Feature", "properties": { "city": "East Palo Alto", "state": "California", "population": 28383, "latitude": 37.4671616, "longitude": -122.1346807, "capital": null }, "geometry": { "type": "Point", "coordinates": [ -122.1346807, 37.4671616 ] } },
{ "type": "Feature", "properties": { "city": "Eastvale", "state": "California", "population": 71024, "latitude": 33.9617327, "longitude": -117.5803131, "capital": null }, "geometry": { "type": "Point", "coordinates": [ -117.5803131, 33.9617327 ] } },
{ "type": "Feature", "properties": { "city": "El Cajon", "state": "California", "population": 104414, "latitude": 32.8016733, "longitude": -116.9604685, "capital": null }, "geometry": { "type": "Point", "coordinates": [ -116.9604685, 32.8016733 ] } },
{ "type": "Feature", "properties": { "city": "El Centro", "state": "California", "population": 43811, "latitude": 32.7860663, "longitude": -115.559648, "capital": null }, "geometry": { "type": "Point", "coordinates": [ -115.559648, 32.7860663 ] } },
{ "type": "Feature", "properties": { "city": "El Cerrito", "state": "California", "population": 25583, "latitude": 37.9195744, "longitude": -122.302519, "capital": null }, "geometry": { "type": "Point", "coordinates": [ -122.302519, 37.9195744 ] } },
{ "type": "Feature", "properties": { "city": "Elk Grove", "state": "California", "population": 177558, "latitude": 38.4155297, "longitude": -121.383632, "capital": null }, "geometry": { "type": "Point", "coordinates": [ -121.383632, 38.4155297 ] } },
{ "type": "Feature", "properties": { "city": "El Monte", "state": "California", "population": 105312, "latitude": 34.0739188, "longitude": -118.0290832, "capital": null }, "geometry": { "type": "Point", "coordinates": [ -118.0290832, 34.0739188 ] } },
{ "type": "Feature", "properties": { "city": "El Paso de Robles (Paso Robles)", "state": "California", "population": 31544, "latitude": 35.6388384, "longitude": -120.6565887, "capital": null }, "geometry": { "type": "Point", "coordinates": [ -120.6565887, 35.6388384 ] } },
{ "type": "Feature", "properties": { "city": "El Segundo", "state": "California", "population": 16622, "latitude": 33.9112914, "longitude": -118.431015, "capital": null }, "geometry": { "type": "Point", "coordinates": [ -118.431015, 33.9112914 ] } },
{ "type": "Feature", "properties": { "city": "Emeryville", "state": "California", "population": 12913, "latitude": 37.8387445, "longitude": -122.2993856, "capital": null }, "geometry": { "type": "Point", "coordinates": [ -122.2993856, 37.8387445 ] } },
{ "type": "Feature", "properties": { "city": "Encinitas", "state": "California", "population": 61369, "latitude": 33.048779, "longitude": -117.2621624, "capital": null }, "geometry": { "type": "Point", "coordinates": [ -117.2621624, 33.048779 ] } },
{ "type": "Feature", "properties": { "city": "Escondido", "state": "California", "population": 150270, "latitude": 33.1347377, "longitude": -117.0722476, "capital": null }, "geometry": { "type": "Point", "coordinates": [ -117.0722476, 33.1347377 ] } },
{ "type": "Feature", "properties": { "city": "Eureka", "state": "California", "population": 26129, "latitude": 40.7971444, "longitude": -124.154431, "capital": null }, "geometry": { "type": "Point", "coordinates": [ -124.154431, 40.7971444 ] } },
{ "type": "Feature", "properties": { "city": "Exeter", "state": "California", "population": 10267, "latitude": 36.2941372, "longitude": -119.1459529, "capital": null }, "geometry": { "type": "Point", "coordinates": [ -119.1459529, 36.2941372 ] } },
{ "type": "Feature", "properties": { "city": "Fairfield", "state": "California", "population": 119338, "latitude": 38.2582894, "longitude": -122.0334994, "capital": null }, "geometry": { "type": "Point", "coordinates": [ -122.0334994, 38.2582894 ] } },
{ "type": "Feature", "properties": { "city": "Farmersville", "state": "California", "population": 10324, "latitude": 36.3047394, "longitude": -119.2086052, "capital": null }, "geometry": { "type": "Point", "coordinates": [ -119.2086052, 36.3047394 ] } },
{ "type": "Feature", "properties": { "city": "Fillmore", "state": "California", "population": 16657, "latitude": 34.3989578, "longitude": -118.9174598, "capital": null }, "geometry": { "type": "Point", "coordinates": [ -118.9174598, 34.3989578 ] } },
{ "type": "Feature", "properties": { "city": "Folsom", "state": "California", "population": 83269, "latitude": 38.6667474, "longitude": -121.1421512, "capital": null }, "geometry": { "type": "Point", "coordinates": [ -121.1421512, 38.6667474 ] } },
{ "type": "Feature", "properties": { "city": "Fontana", "state": "California", "population": 212475, "latitude": 34.0971991, "longitude": -117.4598056, "capital": null }, "geometry": { "type": "Point", "coordinates": [ -117.4598056, 34.0971991 ] } },
{ "type": "Feature", "properties": { "city": "Fortuna", "state": "California", "population": 12516, "latitude": 40.5861606, "longitude": -124.1419759, "capital": null }, "geometry": { "type": "Point", "coordinates": [ -124.1419759, 40.5861606 ] } },
{ "type": "Feature", "properties": { "city": "Foster City", "state": "California", "population": 32026, "latitude": 37.5791432, "longitude": -122.2387397, "capital": null }, "geometry": { "type": "Point", "coordinates": [ -122.2387397, 37.5791432 ] } },
{ "type": "Feature", "properties": { "city": "Fountain Valley", "state": "California", "population": 55930, "latitude": 33.7105063, "longitude": -117.951374, "capital": null }, "geometry": { "type": "Point", "coordinates": [ -117.951374, 33.7105063 ] } },
{ "type": "Feature", "properties": { "city": "Fremont", "state": "California", "population": 223871, "latitude": 37.5246203, "longitude": -121.9950257, "capital": null }, "geometry": { "type": "Point", "coordinates": [ -121.9950257, 37.5246203 ] } },
{ "type": "Feature", "properties": { "city": "Fresno", "state": "California", "population": 545567, "latitude": 36.7829758, "longitude": -119.7938841, "capital": null }, "geometry": { "type": "Point", "coordinates": [ -119.7938841, 36.7829758 ] } },
{ "type": "Feature", "properties": { "city": "Fullerton", "state": "California", "population": 140541, "latitude": 33.8840678, "longitude": -117.9278864, "capital": null }, "geometry": { "type": "Point", "coordinates": [ -117.9278864, 33.8840678 ] } },
{ "type": "Feature", "properties": { "city": "Galt", "state": "California", "population": 25411, "latitude": 38.269331, "longitude": -121.2994001, "capital": null }, "geometry": { "type": "Point", "coordinates": [ -121.2994001, 38.269331 ] } },
{ "type": "Feature", "properties": { "city": "Gardena", "state": "California", "population": 58843, "latitude": 33.8943364, "longitude": -118.307239, "capital": null }, "geometry": { "type": "Point", "coordinates": [ -118.307239, 33.8943364 ] } },
{ "type": "Feature", "properties": { "city": "Garden Grove", "state": "California", "population": 169254, "latitude": 33.7787018, "longitude": -117.9600888, "capital": null }, "geometry": { "type": "Point", "coordinates": [ -117.9600888, 33.7787018 ] } },
{ "type": "Feature", "properties": { "city": "Gilroy", "state": "California", "population": 58005, "latitude": 37.0045813, "longitude": -121.5853993, "capital": null }, "geometry": { "type": "Point", "coordinates": [ -121.5853993, 37.0045813 ] } },
{ "type": "Feature", "properties": { "city": "Glendale", "state": "California", "population": 189221, "latitude": 34.1819184, "longitude": -118.246798, "capital": null }, "geometry": { "type": "Point", "coordinates": [ -118.246798, 34.1819184 ] } },
{ "type": "Feature", "properties": { "city": "Glendora", "state": "California", "population": 50824, "latitude": 34.1449263, "longitude": -117.8467555, "capital": null }, "geometry": { "type": "Point", "coordinates": [ -117.8467555, 34.1449263 ] } },
{ "type": "Feature", "properties": { "city": "Goleta", "state": "California", "population": 32432, "latitude": 34.4360061, "longitude": -119.8597143, "capital": null }, "geometry": { "type": "Point", "coordinates": [ -119.8597143, 34.4360061 ] } },
{ "type": "Feature", "properties": { "city": "Grand Terrace", "state": "California", "population": 13109, "latitude": 34.0310847, "longitude": -117.3131005, "capital": null }, "geometry": { "type": "Point", "coordinates": [ -117.3131005, 34.0310847 ] } },
{ "type": "Feature", "properties": { "city": "Grass Valley", "state": "California", "population": 13930, "latitude": 39.2203048, "longitude": -121.0526538, "capital": null }, "geometry": { "type": "Point", "coordinates": [ -121.0526538, 39.2203048 ] } },
{ "type": "Feature", "properties": { "city": "Greenfield", "state": "California", "population": 19359, "latitude": 36.3242913, "longitude": -121.2432101, "capital": null }, "geometry": { "type": "Point", "coordinates": [ -121.2432101, 36.3242913 ] } },
{ "type": "Feature", "properties": { "city": "Grover Beach", "state": "California", "population": 12619, "latitude": 35.1204368, "longitude": -120.6198849, "capital": null }, "geometry": { "type": "Point", "coordinates": [ -120.6198849, 35.1204368 ] } },
{ "type": "Feature", "properties": { "city": "Half Moon Bay", "state": "California", "population": 11176, "latitude": 37.4685155, "longitude": -122.4380764, "capital": null }, "geometry": { "type": "Point", "coordinates": [ -122.4380764, 37.4685155 ] } },
{ "type": "Feature", "properties": { "city": "Hanford", "state": "California", "population": 58470, "latitude": 36.3277407, "longitude": -119.6546196, "capital": null }, "geometry": { "type": "Point", "coordinates": [ -119.6546196, 36.3277407 ] } },
{ "type": "Feature", "properties": { "city": "Hawaiian Gardens", "state": "California", "population": 13593, "latitude": 33.8303388, "longitude": -118.0728256, "capital": null }, "geometry": { "type": "Point", "coordinates": [ -118.0728256, 33.8303388 ] } },
{ "type": "Feature", "properties": { "city": "Hawthorne", "state": "California", "population": 84563, "latitude": 33.9146689, "longitude": -118.3476896, "capital": null }, "geometry": { "type": "Point", "coordinates": [ -118.3476896, 33.9146689 ] } },
{ "type": "Feature", "properties": { "city": "Hayward", "state": "California", "population": 156754, "latitude": 37.627371, "longitude": -122.1041832, "capital": null }, "geometry": { "type": "Point", "coordinates": [ -122.1041832, 37.627371 ] } },
{ "type": "Feature", "properties": { "city": "Healdsburg", "state": "California", "population": 11709, "latitude": 38.6225262, "longitude": -122.8651327, "capital": null }, "geometry": { "type": "Point", "coordinates": [ -122.8651327, 38.6225262 ] } },
{ "type": "Feature", "properties": { "city": "Hemet", "state": "California", "population": 90689, "latitude": 33.7340679, "longitude": -116.9968083, "capital": null }, "geometry": { "type": "Point", "coordinates": [ -116.9968083, 33.7340679 ] } },
{ "type": "Feature", "properties": { "city": "Hercules", "state": "California", "population": 25920, "latitude": 38.0335329, "longitude": -122.298444, "capital": null }, "geometry": { "type": "Point", "coordinates": [ -122.298444, 38.0335329 ] } },
{ "type": "Feature", "properties": { "city": "Hermosa Beach", "state": "California", "population": 18985, "latitude": 33.85897, "longitude": -118.4195381, "capital": null }, "geometry": { "type": "Point", "coordinates": [ -118.4195381, 33.85897 ] } },
{ "type": "Feature", "properties": { "city": "Hesperia", "state": "California", "population": 100744, "latitude": 34.3975442, "longitude": -117.3146803, "capital": null }, "geometry": { "type": "Point", "coordinates": [ -117.3146803, 34.3975442 ] } },
{ "type": "Feature", "properties": { "city": "Highland", "state": "California", "population": 56705, "latitude": 34.1113023, "longitude": -117.165038, "capital": null }, "geometry": { "type": "Point", "coordinates": [ -117.165038, 34.1113023 ] } },
{ "type": "Feature", "properties": { "city": "Hillsborough", "state": "California", "population": 10956, "latitude": 37.5572062, "longitude": -122.3585413, "capital": null }, "geometry": { "type": "Point", "coordinates": [ -122.3585413, 37.5572062 ] } },
{ "type": "Feature", "properties": { "city": "Hollister", "state": "California", "population": 44218, "latitude": 36.8555992, "longitude": -121.3985978, "capital": null }, "geometry": { "type": "Point", "coordinates": [ -121.3985978, 36.8555992 ] } },
{ "type": "Feature", "properties": { "city": "Huntington Beach", "state": "California", "population": 194310, "latitude": 33.6946609, "longitude": -118.002412, "capital": null }, "geometry": { "type": "Point", "coordinates": [ -118.002412, 33.6946609 ] } },
{ "type": "Feature", "properties": { "city": "Huntington Park", "state": "California", "population": 52633, "latitude": 33.9799937, "longitude": -118.2166835, "capital": null }, "geometry": { "type": "Point", "coordinates": [ -118.2166835, 33.9799937 ] } },
{ "type": "Feature", "properties": { "city": "Imperial", "state": "California", "population": 21233, "latitude": 32.8388009, "longitude": -115.5720123, "capital": null }, "geometry": { "type": "Point", "coordinates": [ -115.5720123, 32.8388009 ] } },
{ "type": "Feature", "properties": { "city": "Imperial Beach", "state": "California", "population": 25791, "latitude": 32.5691142, "longitude": -117.118271, "capital": null }, "geometry": { "type": "Point", "coordinates": [ -117.118271, 32.5691142 ] } },
{ "type": "Feature", "properties": { "city": "Indio", "state": "California", "population": 91980, "latitude": 33.7345991, "longitude": -116.2346239, "capital": null }, "geometry": { "type": "Point", "coordinates": [ -116.2346239, 33.7345991 ] } },
{ "type": "Feature", "properties": { "city": "Inglewood", "state": "California", "population": 103621, "latitude": 33.9565756, "longitude": -118.3444428, "capital": null }, "geometry": { "type": "Point", "coordinates": [ -118.3444428, 33.9565756 ] } },
{ "type": "Feature", "properties": { "city": "Irvine", "state": "California", "population": 313685, "latitude": 33.6771995, "longitude": -117.773838, "capital": null }, "geometry": { "type": "Point", "coordinates": [ -117.773838, 33.6771995 ] } },
{ "type": "Feature", "properties": { "city": "Jurupa Valley", "state": "California", "population": 107609, "latitude": 34.001037, "longitude": -117.4705188, "capital": null }, "geometry": { "type": "Point", "coordinates": [ -117.4705188, 34.001037 ] } },
{ "type": "Feature", "properties": { "city": "Kerman", "state": "California", "population": 16208, "latitude": 36.7250406, "longitude": -120.0624734, "capital": null }, "geometry": { "type": "Point", "coordinates": [ -120.0624734, 36.7250406 ] } },
{ "type": "Feature", "properties": { "city": "King City", "state": "California", "population": 13738, "latitude": 36.2163625, "longitude": -121.1328797, "capital": null }, "geometry": { "type": "Point", "coordinates": [ -121.1328797, 36.2163625 ] } },
{ "type": "Feature", "properties": { "city": "Kingsburg", "state": "California", "population": 12613, "latitude": 36.5244594, "longitude": -119.5601989, "capital": null }, "geometry": { "type": "Point", "coordinates": [ -119.5601989, 36.5244594 ] } },
{ "type": "Feature", "properties": { "city": "Lafayette", "state": "California", "population": 25044, "latitude": 37.8919035, "longitude": -122.1188956, "capital": null }, "geometry": { "type": "Point", "coordinates": [ -122.1188956, 37.8919035 ] } },
{ "type": "Feature", "properties": { "city": "Laguna Beach", "state": "California", "population": 22583, "latitude": 33.5425465, "longitude": -117.761637, "capital": null }, "geometry": { "type": "Point", "coordinates": [ -117.761637, 33.5425465 ] } },
{ "type": "Feature", "properties": { "city": "Laguna Hills", "state": "California", "population": 30568, "latitude": 33.5917312, "longitude": -117.699067, "capital": null }, "geometry": { "type": "Point", "coordinates": [ -117.699067, 33.5917312 ] } },
{ "type": "Feature", "properties": { "city": "Laguna Niguel", "state": "California", "population": 63742, "latitude": 33.5274909, "longitude": -117.7050051, "capital": null }, "geometry": { "type": "Point", "coordinates": [ -117.7050051, 33.5274909 ] } },
{ "type": "Feature", "properties": { "city": "Laguna Woods", "state": "California", "population": 17192, "latitude": 33.6099248, "longitude": -117.729875, "capital": null }, "geometry": { "type": "Point", "coordinates": [ -117.729875, 33.6099248 ] } },
{ "type": "Feature", "properties": { "city": "La Habra", "state": "California", "population": 61978, "latitude": 33.9281941, "longitude": -117.9515444, "capital": null }, "geometry": { "type": "Point", "coordinates": [ -117.9515444, 33.9281941 ] } },
{ "type": "Feature", "properties": { "city": "Lake Elsinore", "state": "California", "population": 71898, "latitude": 33.6846868, "longitude": -117.3344535, "capital": null }, "geometry": { "type": "Point", "coordinates": [ -117.3344535, 33.6846868 ] } },
{ "type": "Feature", "properties": { "city": "Lake Forest", "state": "California", "population": 85638, "latitude": 33.6604835, "longitude": -117.6713776, "capital": null }, "geometry": { "type": "Point", "coordinates": [ -117.6713776, 33.6604835 ] } },
{ "type": "Feature", "properties": { "city": "Lakewood", "state": "California", "population": 79063, "latitude": 33.8470755, "longitude": -118.1221583, "capital": null }, "geometry": { "type": "Point", "coordinates": [ -118.1221583, 33.8470755 ] } },
{ "type": "Feature", "properties": { "city": "La Mesa", "state": "California", "population": 60360, "latitude": 32.7703275, "longitude": -117.0204282, "capital": null }, "geometry": { "type": "Point", "coordinates": [ -117.0204282, 32.7703275 ] } },
{ "type": "Feature", "properties": { "city": "La Mirada", "state": "California", "population": 46323, "latitude": 33.9025064, "longitude": -118.0093025, "capital": null }, "geometry": { "type": "Point", "coordinates": [ -118.0093025, 33.9025064 ] } },
{ "type": "Feature", "properties": { "city": "Lancaster", "state": "California", "population": 169185, "latitude": 34.6934638, "longitude": -118.1753047, "capital": null }, "geometry": { "type": "Point", "coordinates": [ -118.1753047, 34.6934638 ] } },
{ "type": "Feature", "properties": { "city": "La Palma", "state": "California", "population": 15194, "latitude": 33.8503813, "longitude": -118.0406532, "capital": null }, "geometry": { "type": "Point", "coordinates": [ -118.0406532, 33.8503813 ] } },
{ "type": "Feature", "properties": { "city": "La Puente", "state": "California", "population": 36636, "latitude": 34.0322993, "longitude": -117.9533631, "capital": null }, "geometry": { "type": "Point", "coordinates": [ -117.9533631, 34.0322993 ] } },
{ "type": "Feature", "properties": { "city": "La Quinta", "state": "California", "population": 38392, "latitude": 33.6535504, "longitude": -116.2784771, "capital": null }, "geometry": { "type": "Point", "coordinates": [ -116.2784771, 33.6535504 ] } },
{ "type": "Feature", "properties": { "city": "Larkspur", "state": "California", "population": 12754, "latitude": 37.9392392, "longitude": -122.5311334, "capital": null }, "geometry": { "type": "Point", "coordinates": [ -122.5311334, 37.9392392 ] } },
{ "type": "Feature", "properties": { "city": "Lathrop", "state": "California", "population": 33670, "latitude": 37.8090019, "longitude": -121.3131315, "capital": null }, "geometry": { "type": "Point", "coordinates": [ -121.3131315, 37.8090019 ] } },
{ "type": "Feature", "properties": { "city": "La Verne", "state": "California", "population": 30380, "latitude": 34.120686, "longitude": -117.7703233, "capital": null }, "geometry": { "type": "Point", "coordinates": [ -117.7703233, 34.120686 ] } },
{ "type": "Feature", "properties": { "city": "Lawndale", "state": "California", "population": 30576, "latitude": 33.8884347, "longitude": -118.3531433, "capital": null }, "geometry": { "type": "Point", "coordinates": [ -118.3531433, 33.8884347 ] } },
{ "type": "Feature", "properties": { "city": "Lemon Grove", "state": "California", "population": 27224, "latitude": 32.7330712, "longitude": -117.0344134, "capital": null }, "geometry": { "type": "Point", "coordinates": [ -117.0344134, 32.7330712 ] } },
{ "type": "Feature", "properties": { "city": "Lemoore", "state": "California", "population": 27185, "latitude": 36.2943646, "longitude": -119.7982532, "capital": null }, "geometry": { "type": "Point", "coordinates": [ -119.7982532, 36.2943646 ] } },
{ "type": "Feature", "properties": { "city": "Lincoln", "state": "California", "population": 52534, "latitude": 38.8773851, "longitude": -121.2937149, "capital": null }, "geometry": { "type": "Point", "coordinates": [ -121.2937149, 38.8773851 ] } },
{ "type": "Feature", "properties": { "city": "Lindsay", "state": "California", "population": 12537, "latitude": 36.2090959, "longitude": -119.0932588, "capital": null }, "geometry": { "type": "Point", "coordinates": [ -119.0932588, 36.2090959 ] } },
{ "type": "Feature", "properties": { "city": "Livermore", "state": "California", "population": 84701, "latitude": 37.6867558, "longitude": -121.7606574, "capital": null }, "geometry": { "type": "Point", "coordinates": [ -121.7606574, 37.6867558 ] } },
{ "type": "Feature", "properties": { "city": "Livingston", "state": "California", "population": 14760, "latitude": 37.3874883, "longitude": -120.7248695, "capital": null }, "geometry": { "type": "Point", "coordinates": [ -120.7248695, 37.3874883 ] } },
{ "type": "Feature", "properties": { "city": "Lodi", "state": "California", "population": 67258, "latitude": 38.1218057, "longitude": -121.2930667, "capital": null }, "geometry": { "type": "Point", "coordinates": [ -121.2930667, 38.1218057 ] } },
{ "type": "Feature", "properties": { "city": "Loma Linda", "state": "California", "population": 25129, "latitude": 34.0427456, "longitude": -117.2481079, "capital": null }, "geometry": { "type": "Point", "coordinates": [ -117.2481079, 34.0427456 ] } },
{ "type": "Feature", "properties": { "city": "Lomita", "state": "California", "population": 20053, "latitude": 33.7933059, "longitude": -118.3174546, "capital": null }, "geometry": { "type": "Point", "coordinates": [ -118.3174546, 33.7933059 ] } },
{ "type": "Feature", "properties": { "city": "Lompoc", "state": "California", "population": 43736, "latitude": 34.6617919, "longitude": -120.471381, "capital": null }, "geometry": { "type": "Point", "coordinates": [ -120.471381, 34.6617919 ] } },
{ "type": "Feature", "properties": { "city": "Long Beach", "state": "California", "population": 451307, "latitude": 33.7796092, "longitude": -118.1681783, "capital": null }, "geometry": { "type": "Point", "coordinates": [ -118.1681783, 33.7796092 ] } },
{ "type": "Feature", "properties": { "city": "Los Alamitos", "state": "California", "population": 11550, "latitude": 33.797119, "longitude": -118.0592039, "capital": null }, "geometry": { "type": "Point", "coordinates": [ -118.0592039, 33.797119 ] } },
{ "type": "Feature", "properties": { "city": "Los Altos", "state": "California", "population": 30424, "latitude": 37.3684313, "longitude": -122.09657, "capital": null }, "geometry": { "type": "Point", "coordinates": [ -122.09657, 37.3684313 ] } },
{ "type": "Feature", "properties": { "city": "Los Angeles", "state": "California", "population": 3822238, "latitude": 34.1070199, "longitude": -118.4111739, "capital": null }, "geometry": { "type": "Point", "coordinates": [ -118.4111739, 34.1070199 ] } },
{ "type": "Feature", "properties": { "city": "Los Banos", "state": "California", "population": 47044, "latitude": 37.0629957, "longitude": -120.8406717, "capital": null }, "geometry": { "type": "Point", "coordinates": [ -120.8406717, 37.0629957 ] } },
{ "type": "Feature", "properties": { "city": "Los Gatos", "state": "California", "population": 32402, "latitude": 37.2304434, "longitude": -121.9562068, "capital": null }, "geometry": { "type": "Point", "coordinates": [ -121.9562068, 37.2304434 ] } },
{ "type": "Feature", "properties": { "city": "Lynwood", "state": "California", "population": 64086, "latitude": 33.923959, "longitude": -118.2016551, "capital": null }, "geometry": { "type": "Point", "coordinates": [ -118.2016551, 33.923959 ] } },
{ "type": "Feature", "properties": { "city": "McFarland", "state": "California", "population": 14019, "latitude": 35.6672861, "longitude": -119.2307222, "capital": null }, "geometry": { "type": "Point", "coordinates": [ -119.2307222, 35.6672861 ] } },
{ "type": "Feature", "properties": { "city": "Madera", "state": "California", "population": 68050, "latitude": 36.9657736, "longitude": -120.0861597, "capital": null }, "geometry": { "type": "Point", "coordinates": [ -120.0861597, 36.9657736 ] } },
{ "type": "Feature", "properties": { "city": "Malibu", "state": "California", "population": 10370, "latitude": 34.0088244, "longitude": -118.7621442, "capital": null }, "geometry": { "type": "Point", "coordinates": [ -118.7621442, 34.0088244 ] } },
{ "type": "Feature", "properties": { "city": "Manhattan Beach", "state": "California", "population": 34137, "latitude": 33.8853476, "longitude": -118.4241163, "capital": null }, "geometry": { "type": "Point", "coordinates": [ -118.4241163, 33.8853476 ] } },
{ "type": "Feature", "properties": { "city": "Manteca", "state": "California", "population": 86928, "latitude": 37.7927148, "longitude": -121.2263951, "capital": null }, "geometry": { "type": "Point", "coordinates": [ -121.2263951, 37.7927148 ] } },
{ "type": "Feature", "properties": { "city": "Marina", "state": "California", "population": 22503, "latitude": 36.683516, "longitude": -121.791654, "capital": null }, "geometry": { "type": "Point", "coordinates": [ -121.791654, 36.683516 ] } },
{ "type": "Feature", "properties": { "city": "Martinez", "state": "California", "population": 36447, "latitude": 37.9984695, "longitude": -122.1160769, "capital": null }, "geometry": { "type": "Point", "coordinates": [ -122.1160769, 37.9984695 ] } },
{ "type": "Feature", "properties": { "city": "Marysville", "state": "California", "population": 12704, "latitude": 39.151778, "longitude": -121.5834946, "capital": null }, "geometry": { "type": "Point", "coordinates": [ -121.5834946, 39.151778 ] } },
{ "type": "Feature", "properties": { "city": "Maywood", "state": "California", "population": 24122, "latitude": 33.9885475, "longitude": -118.1877074, "capital": null }, "geometry": { "type": "Point", "coordinates": [ -118.1877074, 33.9885475 ] } },
{ "type": "Feature", "properties": { "city": "Mendota", "state": "California", "population": 12618, "latitude": 36.7555267, "longitude": -120.3776018, "capital": null }, "geometry": { "type": "Point", "coordinates": [ -120.3776018, 36.7555267 ] } },
{ "type": "Feature", "properties": { "city": "Menifee", "state": "California", "population": 109399, "latitude": 33.6909264, "longitude": -117.1848749, "capital": null }, "geometry": { "type": "Point", "coordinates": [ -117.1848749, 33.6909264 ] } },
{ "type": "Feature", "properties": { "city": "Menlo Park", "state": "California", "population": 32295, "latitude": 37.4802547, "longitude": -122.1490003, "capital": null }, "geometry": { "type": "Point", "coordinates": [ -122.1490003, 37.4802547 ] } },
{ "type": "Feature", "properties": { "city": "Merced", "state": "California", "population": 91563, "latitude": 37.305712, "longitude": -120.4779051, "capital": null }, "geometry": { "type": "Point", "coordinates": [ -120.4779051, 37.305712 ] } },
{ "type": "Feature", "properties": { "city": "Millbrae", "state": "California", "population": 22071, "latitude": 37.5994069, "longitude": -122.4019923, "capital": null }, "geometry": { "type": "Point", "coordinates": [ -122.4019923, 37.5994069 ] } },
{ "type": "Feature", "properties": { "city": "Mill Valley", "state": "California", "population": 14006, "latitude": 37.9085297, "longitude": -122.5421295, "capital": null }, "geometry": { "type": "Point", "coordinates": [ -122.5421295, 37.9085297 ] } },
{ "type": "Feature", "properties": { "city": "Milpitas", "state": "California", "population": 77738, "latitude": 37.4335814, "longitude": -121.8921095, "capital": null }, "geometry": { "type": "Point", "coordinates": [ -121.8921095, 37.4335814 ] } },
{ "type": "Feature", "properties": { "city": "Mission Viejo", "state": "California", "population": 91776, "latitude": 33.6095489, "longitude": -117.6551448, "capital": null }, "geometry": { "type": "Point", "coordinates": [ -117.6551448, 33.6095489 ] } },
{ "type": "Feature", "properties": { "city": "Modesto", "state": "California", "population": 218069, "latitude": 37.6372171, "longitude": -121.0029456, "capital": null }, "geometry": { "type": "Point", "coordinates": [ -121.0029456, 37.6372171 ] } },
{ "type": "Feature", "properties": { "city": "Monrovia", "state": "California", "population": 36893, "latitude": 34.1651092, "longitude": -117.9921125, "capital": null }, "geometry": { "type": "Point", "coordinates": [ -117.9921125, 34.1651092 ] } },
{ "type": "Feature", "properties": { "city": "Montclair", "state": "California", "population": 37714, "latitude": 34.0714926, "longitude": -117.6980798, "capital": null }, "geometry": { "type": "Point", "coordinates": [ -117.6980798, 34.0714926 ] } },
{ "type": "Feature", "properties": { "city": "Montebello", "state": "California", "population": 60569, "latitude": 34.0154415, "longitude": -118.110799, "capital": null }, "geometry": { "type": "Point", "coordinates": [ -118.110799, 34.0154415 ] } },
{ "type": "Feature", "properties": { "city": "Monterey", "state": "California", "population": 29571, "latitude": 36.601284, "longitude": -121.8830093, "capital": null }, "geometry": { "type": "Point", "coordinates": [ -121.8830093, 36.601284 ] } },
{ "type": "Feature", "properties": { "city": "Monterey Park", "state": "California", "population": 58554, "latitude": 34.0497113, "longitude": -118.1325386, "capital": null }, "geometry": { "type": "Point", "coordinates": [ -118.1325386, 34.0497113 ] } },
{ "type": "Feature", "properties": { "city": "Moorpark", "state": "California", "population": 35514, "latitude": 34.2861377, "longitude": -118.8768166, "capital": null }, "geometry": { "type": "Point", "coordinates": [ -118.8768166, 34.2861377 ] } },
{ "type": "Feature", "properties": { "city": "Moraga", "state": "California", "population": 16707, "latitude": 37.8439484, "longitude": -122.1225224, "capital": null }, "geometry": { "type": "Point", "coordinates": [ -122.1225224, 37.8439484 ] } },
{ "type": "Feature", "properties": { "city": "Moreno Valley", "state": "California", "population": 211924, "latitude": 33.9243837, "longitude": -117.2045681, "capital": null }, "geometry": { "type": "Point", "coordinates": [ -117.2045681, 33.9243837 ] } },
{ "type": "Feature", "properties": { "city": "Morgan Hill", "state": "California", "population": 44973, "latitude": 37.132495, "longitude": -121.6418905, "capital": null }, "geometry": { "type": "Point", "coordinates": [ -121.6418905, 37.132495 ] } },
{ "type": "Feature", "properties": { "city": "Morro Bay", "state": "California", "population": 10696, "latitude": 35.366249, "longitude": -120.866234, "capital": null }, "geometry": { "type": "Point", "coordinates": [ -120.866234, 35.366249 ] } },
{ "type": "Feature", "properties": { "city": "Mountain View", "state": "California", "population": 81059, "latitude": 37.4005649, "longitude": -122.0795486, "capital": null }, "geometry": { "type": "Point", "coordinates": [ -122.0795486, 37.4005649 ] } },
{ "type": "Feature", "properties": { "city": "Murrieta", "state": "California", "population": 113783, "latitude": 33.5719035, "longitude": -117.1908252, "capital": null }, "geometry": { "type": "Point", "coordinates": [ -117.1908252, 33.5719035 ] } },
{ "type": "Feature", "properties": { "city": "Napa", "state": "California", "population": 78315, "latitude": 38.2974631, "longitude": -122.3010735, "capital": null }, "geometry": { "type": "Point", "coordinates": [ -122.3010735, 38.2974631 ] } },
{ "type": "Feature", "properties": { "city": "National City", "state": "California", "population": 55550, "latitude": 32.6653744, "longitude": -117.0981284, "capital": null }, "geometry": { "type": "Point", "coordinates": [ -117.0981284, 32.6653744 ] } },
{ "type": "Feature", "properties": { "city": "Newark", "state": "California", "population": 47312, "latitude": 37.5200949, "longitude": -122.0307227, "capital": null }, "geometry": { "type": "Point", "coordinates": [ -122.0307227, 37.5200949 ] } },
{ "type": "Feature", "properties": { "city": "Newman", "state": "California", "population": 12272, "latitude": 37.3161283, "longitude": -121.0214244, "capital": null }, "geometry": { "type": "Point", "coordinates": [ -121.0214244, 37.3161283 ] } },
{ "type": "Feature", "properties": { "city": "Newport Beach", "state": "California", "population": 83993, "latitude": 33.5966346, "longitude": -117.8932861, "capital": null }, "geometry": { "type": "Point", "coordinates": [ -117.8932861, 33.5966346 ] } },
{ "type": "Feature", "properties": { "city": "Norco", "state": "California", "population": 25042, "latitude": 33.9252121, "longitude": -117.54988, "capital": null }, "geometry": { "type": "Point", "coordinates": [ -117.54988, 33.9252121 ] } },
{ "type": "Feature", "properties": { "city": "Norwalk", "state": "California", "population": 98537, "latitude": 33.9068756, "longitude": -118.0829157, "capital": null }, "geometry": { "type": "Point", "coordinates": [ -118.0829157, 33.9068756 ] } },
{ "type": "Feature", "properties": { "city": "Novato", "state": "California", "population": 52184, "latitude": 38.0914929, "longitude": -122.5565488, "capital": null }, "geometry": { "type": "Point", "coordinates": [ -122.5565488, 38.0914929 ] } },
{ "type": "Feature", "properties": { "city": "Oakdale", "state": "California", "population": 23176, "latitude": 37.7617533, "longitude": -120.8468427, "capital": null }, "geometry": { "type": "Point", "coordinates": [ -120.8468427, 37.7617533 ] } },
{ "type": "Feature", "properties": { "city": "Oakland", "state": "California", "population": 430553, "latitude": 37.7695169, "longitude": -122.2244862, "capital": null }, "geometry": { "type": "Point", "coordinates": [ -122.2244862, 37.7695169 ] } },
{ "type": "Feature", "properties": { "city": "Oakley", "state": "California", "population": 44688, "latitude": 37.9929514, "longitude": -121.6951557, "capital": null }, "geometry": { "type": "Point", "coordinates": [ -121.6951557, 37.9929514 ] } },
{ "type": "Feature", "properties": { "city": "Oceanside", "state": "California", "population": 172199, "latitude": 33.2246393, "longitude": -117.3084319, "capital": null }, "geometry": { "type": "Point", "coordinates": [ -117.3084319, 33.2246393 ] } },
{ "type": "Feature", "properties": { "city": "Ontario", "state": "California", "population": 179061, "latitude": 34.039259, "longitude": -117.6064081, "capital": null }, "geometry": { "type": "Point", "coordinates": [ -117.6064081, 34.039259 ] } },
{ "type": "Feature", "properties": { "city": "Orange", "state": "California", "population": 136178, "latitude": 33.8037985, "longitude": -117.8217374, "capital": null }, "geometry": { "type": "Point", "coordinates": [ -117.8217374, 33.8037985 ] } },
{ "type": "Feature", "properties": { "city": "Orinda", "state": "California", "population": 19355, "latitude": 37.8807853, "longitude": -122.1790683, "capital": null }, "geometry": { "type": "Point", "coordinates": [ -122.1790683, 37.8807853 ] } },
{ "type": "Feature", "properties": { "city": "Oroville", "state": "California", "population": 20041, "latitude": 39.4999697, "longitude": -121.5634377, "capital": null }, "geometry": { "type": "Point", "coordinates": [ -121.5634377, 39.4999697 ] } },
{ "type": "Feature", "properties": { "city": "Oxnard", "state": "California", "population": 200415, "latitude": 34.2005568, "longitude": -119.2142226, "capital": null }, "geometry": { "type": "Point", "coordinates": [ -119.2142226, 34.2005568 ] } },
{ "type": "Feature", "properties": { "city": "Pacifica", "state": "California", "population": 36517, "latitude": 37.6112114, "longitude": -122.478098, "capital": null }, "geometry": { "type": "Point", "coordinates": [ -122.478098, 37.6112114 ] } },
{ "type": "Feature", "properties": { "city": "Pacific Grove", "state": "California", "population": 14791, "latitude": 36.6224243, "longitude": -121.926228, "capital": null }, "geometry": { "type": "Point", "coordinates": [ -121.926228, 36.6224243 ] } },
{ "type": "Feature", "properties": { "city": "Palmdale", "state": "California", "population": 163463, "latitude": 34.5944586, "longitude": -118.105719, "capital": null }, "geometry": { "type": "Point", "coordinates": [ -118.105719, 34.5944586 ] } },
{ "type": "Feature", "properties": { "city": "Palm Desert", "state": "California", "population": 51583, "latitude": 33.7377747, "longitude": -116.3695003, "capital": null }, "geometry": { "type": "Point", "coordinates": [ -116.3695003, 33.7377747 ] } },
{ "type": "Feature", "properties": { "city": "Palm Springs", "state": "California", "population": 45223, "latitude": 33.8015805, "longitude": -116.5380756, "capital": null }, "geometry": { "type": "Point", "coordinates": [ -116.5380756, 33.8015805 ] } },
{ "type": "Feature", "properties": { "city": "Palo Alto", "state": "California", "population": 66010, "latitude": 37.3952288, "longitude": -122.1429189, "capital": null }, "geometry": { "type": "Point", "coordinates": [ -122.1429189, 37.3952288 ] } },
{ "type": "Feature", "properties": { "city": "Palos Verdes Estates", "state": "California", "population": 12792, "latitude": 33.7835733, "longitude": -118.4372312, "capital": null }, "geometry": { "type": "Point", "coordinates": [ -118.4372312, 33.7835733 ] } },
{ "type": "Feature", "properties": { "city": "Paramount", "state": "California", "population": 51653, "latitude": 33.8976289, "longitude": -118.1651179, "capital": null }, "geometry": { "type": "Point", "coordinates": [ -118.1651179, 33.8976289 ] } },
{ "type": "Feature", "properties": { "city": "Parlier", "state": "California", "population": 14554, "latitude": 36.6089926, "longitude": -119.5436104, "capital": null }, "geometry": { "type": "Point", "coordinates": [ -119.5436104, 36.6089926 ] } },
{ "type": "Feature", "properties": { "city": "Pasadena", "state": "California", "population": 134211, "latitude": 34.1596757, "longitude": -118.1388655, "capital": null }, "geometry": { "type": "Point", "coordinates": [ -118.1388655, 34.1596757 ] } },
{ "type": "Feature", "properties": { "city": "Patterson", "state": "California", "population": 23833, "latitude": 37.4758037, "longitude": -121.1536437, "capital": null }, "geometry": { "type": "Point", "coordinates": [ -121.1536437, 37.4758037 ] } },
{ "type": "Feature", "properties": { "city": "Perris", "state": "California", "population": 80263, "latitude": 33.7898022, "longitude": -117.2233483, "capital": null }, "geometry": { "type": "Point", "coordinates": [ -117.2233483, 33.7898022 ] } },
{ "type": "Feature", "properties": { "city": "Petaluma", "state": "California", "population": 58652, "latitude": 38.2422782, "longitude": -122.6266104, "capital": null }, "geometry": { "type": "Point", "coordinates": [ -122.6266104, 38.2422782 ] } },
{ "type": "Feature", "properties": { "city": "Pico Rivera", "state": "California", "population": 59781, "latitude": 33.990136, "longitude": -118.0887256, "capital": null }, "geometry": { "type": "Point", "coordinates": [ -118.0887256, 33.990136 ] } },
{ "type": "Feature", "properties": { "city": "Piedmont", "state": "California", "population": 10811, "latitude": 37.8225447, "longitude": -122.2300241, "capital": null }, "geometry": { "type": "Point", "coordinates": [ -122.2300241, 37.8225447 ] } },
{ "type": "Feature", "properties": { "city": "Pinole", "state": "California", "population": 18582, "latitude": 38.0105637, "longitude": -122.3196686, "capital": null }, "geometry": { "type": "Point", "coordinates": [ -122.3196686, 38.0105637 ] } },
{ "type": "Feature", "properties": { "city": "Pittsburg", "state": "California", "population": 77572, "latitude": 38.0182003, "longitude": -121.8964554, "capital": null }, "geometry": { "type": "Point", "coordinates": [ -121.8964554, 38.0182003 ] } },